Наименование,Описание,Рубрики,Адрес,Комментарий к адресу,Почтовый индекс,Микрорайон,Район,Город,Округ,Регион,Страна,Часы работы,Часовой пояс,Рейтинг,Количество отзывов,Телефон 1,Телефон 2,Телефон 3,E-mail 1,E-mail 2,E-mail 3,Веб-сайт 1,Веб-сайт 2,Веб-сайт 3,Instagram,Twitter,Facebook,ВКонтакте,WhatsApp 1,WhatsApp 2,WhatsApp 3,Viber,Telegram 1,Telegram 2,YouTube,Широта,Долгота,2GIS URL,Тип
SF,,Рестораны; Кафе; Доставка готовых блюд; Суши-бары; Быстрое питание; Пиццерии,"улица Туркестан, 10",2 этаж,,,Есиль район,Астана,,Астана,Казахстан,Пн: 00:00-24:00; Вт: 00:00-24:00; Ср: 00:00-24:00; Чт: 00:00-24:00; Пт: 00:00-24:00; Сб: 00:00-24:00; Вс: 00:00-24:00,+05:00,4.2,1080,87777888888 (служба доставки: круглосуточно ),,,,,,http://shaurma-food.kz,,,https://instagram.com/sf.qaz,,,,https://wa.me/77777888888,,,,,,https://youtube.com/@sf-2077,51.110439,71.425791,https://2gis.com/firm/70000001067180779,branch
Family Baoli,семейный ресторан ,Рестораны; Доставка готовых блюд; Кафе,"улица Бухар жырау, 19",1-2 этаж,,,Есиль район,Астана,,Астана,Казахстан,Пн: 11:00-24:00; Вт: 11:00-24:00; Ср: 11:00-24:00; Чт: 11:00-24:00; Пт: 11:00-24:00; Сб: 11:00-24:00; Вс: 11:00-24:00,+05:00,4.4,207,87017425151,,,,,,,,,https://instagram.com/baoli.family,,,,https://wa.me/77017425151,,,,,,,51.100525,71.426017,https://2gis.com/firm/70000001083429486,branch
MeATADOR,гриль-бар,Рестораны; Караоке-залы; Бары,"проспект Туран, 60",1 этаж,,,Нура район,Астана,,Астана,Казахстан,Пн: 13:00-01:00; Вт: 13:00-01:00; Ср: 13:00-01:00; Чт: 13:00-02:00; Пт: 13:00-02:00; Сб: 13:00-02:00; Вс: 13:00-01:00,+05:00,4.5,380,87010326660 (гриль-бар ),87172516850 (гриль-бар ),87010526660 (гостиница ),,,,http://meatador.2gis.biz/,,,https://instagram.com/meatador_astana,,,,https://wa.me/77010326660,,,,,,,51.100841,71.395926,https://2gis.com/firm/70000001061545801,branch
Polly&Molly,,Рестораны; Доставка готовых блюд; Бары; Кафе,"проспект Мангилик Ел, 45 блок J",,,,Есиль район,Астана,,Астана,Казахстан,Пн: 08:00-24:00; Вт: 08:00-24:00; Ср: 08:00-24:00; Чт: 08:00-24:00; Пт: 08:00-24:00; Сб: 08:00-24:00; Вс: 08:00-24:00,+05:00,4.7,236,87712427246 (управляющий),,,ros.ion1204@gmail.com,,,,,,https://instagram.com/pollymollykz,,,,https://wa.me/77712427246,,,viber://chat/?number=77712427246,https://t.me/+77712427246,,,51.099699,71.427689,https://2gis.com/firm/70000001059431748,branch
Ranch Social,гриль-бар,Рестораны; Бары; Доставка готовых блюд,"проспект Ракымжан Кошкарбаев, 10",,,,Алматы район,Астана,,Астана,Казахстан,Пн: 14:00-03:00; Вт: 14:00-03:00; Ср: 14:00-03:00; Чт: 14:00-03:00; Пт: 14:00-04:00; Сб: 14:00-04:00; Вс: 14:00-03:00,+05:00,4.7,54,87005247776,,,,,,http://ranch-social.kamiqr.com/menu/at-place,,,https://instagram.com/ranch.social,,,,https://wa.me/77005247776,,,,,,,51.126176,71.468605,https://2gis.com/firm/70000001081583833,branch
CrepeCafe,,Рестораны; Доставка готовых блюд; Кафе,"проспект Мангилик Ел, 17",,,,Есиль район,Астана,,Астана,Казахстан,Пн: 08:00-24:00; Вт: 08:00-24:00; Ср: 08:00-24:00; Чт: 08:00-24:00; Пт: 08:00-24:00; Сб: 09:00-24:00; Вс: 09:00-24:00,+05:00,4.6,1161,87719494949,,,info@crepecafe.kz,,,http://crepecafe.kz,,,https://instagram.com/crepecafe_kz,,https://facebook.com/crepecafekz,,https://wa.me/77719494949,,,,,,,51.116723,71.433712,https://2gis.com/firm/70000001032988559,branch
Marcello,ресторан,Рестораны; Доставка готовых блюд,"улица Туркестан, 28а",,,,Есиль район,Астана,,Астана,Казахстан,Пн: 08:00-24:00; Вт: 08:00-24:00; Ср: 08:00-24:00; Чт: 08:00-24:00; Пт: 08:00-24:00; Сб: 08:00-24:00; Вс: 08:00-24:00,+05:00,4.5,274,87004000037,,,,,,,,,https://instagram.com/marcello.restaurant,,,,https://wa.me/77004000037,,,,,,,51.101383,71.422785,https://2gis.com/firm/70000001046450890,branch
Bloom Room Cafe,семейный ресторан,Рестораны; Доставка готовых блюд,"проспект Туран, 52",,,,Нура район,Астана,,Астана,Казахстан,Пн: 08:00-24:00; Вт: 08:00-24:00; Ср: 08:00-24:00; Чт: 08:00-24:00; Пт: 08:00-24:00; Сб: 08:00-24:00; Вс: 08:00-24:00,+05:00,4.7,111,87057774440,,,,,,,,,https://instagram.com/bloomroom.cafe,,,,https://wa.me/77057774440,,,,,,,51.10557,71.397607,https://2gis.com/firm/70000001080574946,branch
Вечное Небо,ресторан,Рестораны; Бары,"улица Александр Бараев, 23",,,,Байконыр район,Астана,,Астана,Казахстан,Пн: 12:00-24:00; Вт: 12:00-24:00; Ср: 12:00-24:00; Чт: 12:00-24:00; Пт: 12:00-02:00; Сб: 12:00-02:00; Вс: 12:00-24:00,+05:00,4.8,175,87087000377,,,nebo.astana@mail.ru,,,http://taplink.cc/vechnoenebobaraeva,,,https://instagram.com/vechnoe.nebo.baraeva,,,,https://wa.me/77087000377,,,,,,,51.159362,71.43811,https://2gis.com/firm/70000001081545536,branch
Deraliye,ресторан османской кухни,Рестораны; Доставка готовых блюд,"проспект Кабанбай батыр, 45/1",,,,Нура район,Астана,,Астана,Казахстан,Пн: 08:00-24:00; Вт: 08:00-24:00; Ср: 08:00-24:00; Чт: 08:00-24:00; Пт: 08:00-24:00; Сб: 08:00-24:00; Вс: 08:00-24:00,+05:00,4.3,371,87754556006,,,deraliye.astana@gmail.com,,,,,,https://instagram.com/deraliye_astana,,,,https://wa.me/77754556006,,,,,,,51.111725,71.408159,https://2gis.com/firm/70000001065956795,branch
Gaststätte,ресторан баварской кухни,Рестораны; Бары,"проспект Женис, 2",,,,Сарыарка район,Астана,,Астана,Казахстан,Пн: 12:30-23:00; Вт: 12:30-23:00; Ср: 12:30-23:00; Чт: 12:30-23:00; Пт: 12:30-24:00; Сб: 12:30-24:00; Вс: 12:30-21:00,+05:00,4.8,111,87172995299,87015662626,87011977785,,,,,,,https://instagram.com/gaststatte_astana,,,,https://wa.me/77015662626,,,,https://t.me/+77011977785,,,51.160661,71.415301,https://2gis.com/firm/70000001018067004,branch
Ribambelle,семейный ресторан,Рестораны; Организация и проведение праздников; Кондитерские изделия,"улица Достык, 16",3 этаж,,,Есиль район,Астана,,Астана,Казахстан,Пн: 10:00-22:00; Вт: 10:00-22:00; Ср: 10:00-22:00; Чт: 10:00-22:00; Пт: 10:00-22:00; Сб: 10:00-22:00; Вс: 10:00-22:00,+05:00,4.0,186,87717791155,,,marketing@ribambelle.kz,,,http://ribambelle.kz,,,https://instagram.com/ribambellekz,,,,https://wa.me/77717791155,https://wa.me/77011230732,,,https://t.me/+77717791155,,,51.125259,71.431884,https://2gis.com/firm/70000001043874646,branch
KUTAISI,ресторан грузинской кухни и пекарня,Рестораны; Бары; Пекарни,"проспект Бауыржан Момышулы, 13",1 этаж,,,Алматы район,Астана,,Астана,Казахстан,Пн: 12:00-24:00; Вт: 12:00-24:00; Ср: 12:00-24:00; Чт: 12:00-24:00; Пт: 12:00-24:00; Сб: 12:00-24:00; Вс: 12:00-24:00,+05:00,4.4,232,"87780020303 (ресторан, служба доставки )",87015410304 (пекарня),,kutaisi.rest.ast@gmail.com,,,http://kutaisi.2gis.biz,,,https://instagram.com/kutaisi.rest.ast,,,,https://wa.me/77780020303,,,,,,,51.137954,71.469733,https://2gis.com/firm/70000001066218293,branch
Daididau,ресторан казахской национальной и авторской кухни,Рестораны; Кейтеринг,"улица Динмухамед Конаев, 14",,,,Есиль район,Астана,,Астана,Казахстан,Пн: 12:00-01:00; Вт: 12:00-01:00; Ср: 12:00-01:00; Чт: 12:00-01:00; Пт: 12:00-01:00; Сб: 12:00-01:00; Вс: 12:00-01:00,+05:00,4.5,154,87780007841,,,restaurant_daididau@mail.ru,,,,,,https://instagram.com/daididau.restaurant,,,,https://wa.me/77780007841,,,,https://t.me/+77780007841,,,51.128657,71.432791,https://2gis.com/firm/70000001074576850,branch
Terrasa Comfort,,Рестораны; Бары; Караоке-залы,"улица Космонавтов, 60",,,Шубар м-н,Есиль район,Астана,,Астана,Казахстан,Пн: 12:00-01:00; Вт: 12:00-01:00; Ср: 12:00-01:00; Чт: 12:00-01:00; Пт: 12:00-01:00; Сб: 12:00-01:00; Вс: 12:00-01:00,+05:00,4.4,131,87018071385 (банкетный зал ),,,info@comforthotel.kz,,,http://comforthotel.kz/,,,https://instagram.com/comfort_hotel_astana,,,,https://wa.me/77018071385,,,,,,,51.146618,71.42528,https://2gis.com/firm/70000001055039789,branch
InstaCafe ,семейный ресторан,Рестораны,"улица Балкантау, 92",,,Юго-Восток (правая сторона) ж/м,Алматы район,Астана,,Астана,Казахстан,Пн: 09:00-24:00; Вт: 09:00-24:00; Ср: 09:00-24:00; Чт: 09:00-24:00; Пт: 10:00-02:00; Сб: 10:00-02:00; Вс: 10:00-24:00,+05:00,4.8,44,87779484445,,,,,,,,,https://instagram.com/instacafe_astana,,,,https://wa.me/77779484445,,,,https://t.me/+77779484445,,,51.13174,71.4787,https://2gis.com/firm/70000001082507762,branch
Grande,семейный ресторан,Рестораны; Банкетные залы,"улица Туркестан, 10",,,,Есиль район,Астана,,Астана,Казахстан,Пн: 12:00-24:00; Вт: 12:00-24:00; Ср: 12:00-24:00; Чт: 12:00-24:00; Пт: 12:00-24:00; Сб: 12:00-24:00; Вс: 12:00-24:00,+05:00,4.5,513,87754423597,,,,,,,,,https://instagram.com/grande.astana,,,,https://wa.me/77754423597,,,,,,,51.111263,71.426814,https://2gis.com/firm/70000001080779769,branch
Казбек,чайхана премиум,Рестораны; Бары,"улица Алихан Бокейхан, 6",,,,Есиль район,Астана,,Астана,Казахстан,Пн: 12:00-01:00; Вт: 12:00-01:00; Ср: 12:00-01:00; Чт: 12:00-01:00; Пт: 12:00-02:00; Сб: 12:00-02:00; Вс: 12:00-01:00,+05:00,4.5,241,87013528686,,,kazbekpremium@gmail.com,,,http://kazbekpremiumchaikhana.2gis.biz,http://tiktok.com/@kazbek_premium,http://kazbekpremium.taplink.ws/,https://instagram.com/kazbek_premium,,,,https://wa.me/77013528686,,,,https://t.me/+77013528686,,,51.116301,71.439708,https://2gis.com/firm/70000001065738755,branch
Грузин Кузин,,Рестораны; Доставка готовых блюд,"улица Динмухамед Конаев, 14",,,,Есиль район,Астана,,Астана,Казахстан,Пн: 12:00-02:00; Вт: 12:00-02:00; Ср: 12:00-02:00; Чт: 12:00-02:00; Пт: 12:00-02:00; Сб: 12:00-02:00; Вс: 12:00-02:00,+05:00,4.8,495,87020079880,,,,,,,,,https://instagram.com/gruzin_kz,,,,https://wa.me/77020079880,,,,,,,51.128325,71.435486,https://2gis.com/firm/70000001081673773,branch
Yakuza Sushi & Wok Bar,,Рестораны; Бары; Кафе; Доставка готовых блюд; Суши-бары,"улица Кайым Мухамедханов, 9",1 этаж,,Караоткель-1 м-н,Нура район,Астана,,Астана,Казахстан,Пн: 12:00-01:00; Вт: 12:00-01:00; Ср: 12:00-01:00; Чт: 12:00-01:00; Пт: 12:00-01:00; Сб: 12:00-01:00; Вс: 12:00-01:00 (служба доставки: пн-вс 11:00-00:30),+05:00,4.2,701,87768899688 (бронь столов),87789001219 (директор),87020065558 (колл-центр),,,,http://yakuza-sushi.kz,http://yakuza-sushi.minisite.ai,,https://instagram.com/yakuza.astana,,,,https://wa.me/77789001219,https://wa.me/77768899688,,,https://t.me/+77789001219,,,51.138539,71.400547,https://2gis.com/firm/70000001039804729,branch
Столичные раки,зона отдыха,Рестораны; Базы отдыха; Бани / Сауны,"улица Акжайык, 3",,,,,,Аршалынский район,Акмолинская область,Казахстан,Пн: 09:00-24:00; Вт: 09:00-24:00; Ср: 09:00-24:00; Чт: 09:00-24:00; Пт: 09:00-24:00; Сб: 09:00-24:00; Вс: 09:00-24:00,+05:00,4.0,207,87017933437,87760222270,,smagay@mail.ru,,,,,,https://instagram.com/stolichnyeraki,,,,https://wa.me/77017933437,https://wa.me/77760222270,,,,,,51.087449,71.774656,https://2gis.com/firm/70000001023565576,branch
Sakaba,ресторан японской кухни,Рестораны; Бары; Доставка готовых блюд,"улица Сагадат Нурмагамбетов, 19",,,,Алматы район,Астана,,Астана,Казахстан,Пн: 11:00-24:00; Вт: 11:00-24:00; Ср: 11:00-24:00; Чт: 11:00-24:00; Пт: 11:00-24:00; Сб: 11:00-24:00; Вс: 11:00-24:00,+05:00,4.9,81,87055728125,,,,,,,,,https://instagram.com/sakaba.kz,,,,https://wa.me/77055728125,,,,,,,51.115511,71.482805,https://2gis.com/firm/70000001080133185,branch
Aula,чайхана,Рестораны,"улица Е-899, 1/1",,,,Нура район,Астана,,Астана,Казахстан,Пн: 12:00-24:00; Вт: 12:00-24:00; Ср: 12:00-24:00; Чт: 12:00-24:00; Пт: 12:00-24:00; Сб: 12:00-24:00; Вс: 12:00-24:00,+05:00,4.0,135,87710854141,87080854141,,aulaastana@gmail.com,,,,,,https://instagram.com/aula_ast,,,,https://wa.me/77710854141,,,,,,,51.131877,71.387147,https://2gis.com/firm/70000001083813383,branch
Granada,ресторан европейской и грузинской кухни,Рестораны; Доставка готовых блюд; Бары,"проспект Кабанбай батыр, 49",,,,Нура район,Астана,,Астана,Казахстан,Пн: 12:00-01:00; Вт: 12:00-01:00; Ср: 12:00-01:00; Чт: 12:00-01:00; Пт: 12:00-01:00; Сб: 12:00-01:00; Вс: 12:00-01:00,+05:00,4.6,454,87007370050,,,granadaastana@gmail.com,,,,,,https://instagram.com/granada.restaurant,,,,https://wa.me/77007370050,,,,,,,51.102302,71.405902,https://2gis.com/firm/70000001051432622,branch
А8,семейный ресторан,Рестораны; Караоке-залы,"проспект Ракымжан Кошкарбаев, 1/1",,,,Алматы район,Астана,,Астана,Казахстан,Пн: 12:00-01:00; Вт: 12:00-01:00; Ср: 12:00-01:00; Чт: 12:00-01:00; Пт: 12:00-01:00; Сб: 12:00-01:00; Вс: 12:00-01:00,+05:00,4.3,545,87775895588,,,,,,,,,https://instagram.com/restaurant_a8,,,,https://wa.me/77775895588,,,,,,,51.128784,71.465361,https://2gis.com/firm/70000001069502569,branch
AlmaWine,ресторан,Рестораны; Бары,"улица Туркестан, 18",1 этаж,,,Есиль район,Астана,,Астана,Казахстан,Пн: 12:00-01:00; Вт: 12:00-01:00; Ср: 12:00-01:00; Чт: 12:00-01:00; Пт: 12:00-02:00; Сб: 12:00-02:00; Вс: 12:00-01:00,+05:00,4.6,102,87710558133,,,,,,,,,https://instagram.com/almawine_astana,,,,https://wa.me/77710558133,,,,,,,51.10456,71.424441,https://2gis.com/firm/70000001053405771,branch
Jent,ресторан национальной кухни ,Рестораны; Караоке-залы,"улица Керей-Жанибек хандар, 22",,,,Есиль район,Астана,,Астана,Казахстан,Пн: 12:00-02:00; Вт: 12:00-02:00; Ср: 12:00-02:00; Чт: 12:00-02:00; Пт: 12:00-02:00; Сб: 12:00-02:00; Вс: 12:00-02:00,+05:00,4.7,210,87022727769,,,,,,http://jent.2gis.biz,,,https://instagram.com/jent_restaurant,,,,https://wa.me/77022727769,,,,,,,51.113269,71.429076,https://2gis.com/firm/70000001081872847,branch
Dune,,Рестораны,"улица Сарайшык, 6",,,,Есиль район,Астана,,Астана,Казахстан,Пн: 10:00-24:00; Вт: 10:00-24:00; Ср: 10:00-24:00; Чт: 10:00-24:00; Пт: 10:00-01:00; Сб: 10:00-01:00; Вс: 10:00-24:00,+05:00,4.4,69,87766664069,,,,,,,,,https://instagram.com/dune.astana,,,,https://wa.me/77766664069,,,,,,,51.135083,71.419493,https://2gis.com/firm/70000001071743862,branch
Chaihana NAVAT,ресторан,Рестораны; Доставка готовых блюд,"проспект Мангилик Ел, 27",,,,Есиль район,Астана,,Астана,Казахстан,Пн: 10:00-24:00; Вт: 10:00-24:00; Ср: 10:00-24:00; Чт: 10:00-24:00; Пт: 10:00-24:00; Сб: 10:00-24:00; Вс: 10:00-24:00 (служба доставки: пн-вс 10:30-22:00),+05:00,4.8,1989,87051551111,,,chaihana.navat.kz@gmail.com,,,http://navat.kz,,,https://instagram.com/navat_astana,,https://facebook.com/navat.kz,,,,,,,,https://youtube.com/channel/UCG1BLltcElVfRcoH5Z8pHEg,51.109763,71.431121,https://2gis.com/firm/70000001069294638,branch
Panno,ресторан,Рестораны; Бары; Караоке-залы; Доставка готовых блюд,"улица Достык, 13",,,,Есиль район,Астана,,Астана,Казахстан,Пн: 17:00-01:00; Вт: 17:00-01:00; Ср: 17:00-01:00; Чт: 17:00-01:00; Пт: 17:00-03:00; Сб: 17:00-03:00; Вс: 17:00-01:00,+05:00,4.2,202,87074545455,,,work.pano.restaurant@gmail.com,,,,,,https://instagram.com/panno.astana,,,,https://wa.me/77074545455,,,,,,,51.126586,71.436818,https://2gis.com/firm/70000001069577746,branch
Mandarin,ресторан,Рестораны; Доставка готовых блюд; Суши-бары; Бары,"улица Шамши Калдаяков, 3",,,,Алматы район,Астана,,Астана,Казахстан,Пн: 12:00-24:00; Вт: 12:00-24:00; Ср: 12:00-24:00; Чт: 12:00-24:00; Пт: 12:00-02:00; Сб: 12:00-02:00; Вс: 12:00-24:00,+05:00,4.7,275,87009990606,,,,,,,,,https://instagram.com/mandarin.astana,,,,https://wa.me/77009990606,,,,https://t.me/+77009990606,,,51.118795,71.459251,https://2gis.com/firm/70000001068978315,branch
Mary,,Рестораны; Доставка готовых блюд,"улица Сыганак, 60/5",1 этаж,,,Есиль район,Астана,,Астана,Казахстан,Пн: 10:00-23:00; Вт: 10:00-23:00; Ср: 10:00-23:00; Чт: 10:00-23:00; Пт: 10:00-23:00; Сб: 10:00-23:00; Вс: 10:00-23:00,+05:00,4.2,498,87779372424,,,,,,http://mary.kamiqr.com/menu/delivery,,,https://instagram.com/mary_kazakhstan__,,,,https://wa.me/77779372424,,,,https://t.me/+77779372424,,,51.122574,71.429008,https://2gis.com/firm/70000001060285990,branch
Frau Muller,ресто-паб,Рестораны; Бары; Караоке-залы,"улица Сарайшык, 5г",,,,Есиль район,Астана,,Астана,Казахстан,Пн: 12:00-02:00; Вт: 12:00-02:00; Ср: 12:00-02:00; Чт: 12:00-02:00; Пт: 12:00-03:00; Сб: 12:00-03:00; Вс: 12:00-03:00,+05:00,4.3,50,87051815891,,,,,,,,,https://instagram.com/fraumullerkz,,,,https://wa.me/77051815891,,,,,,,51.136115,71.420898,https://2gis.com/firm/70000001081855596,branch
Safran,ресторан,Рестораны,"проспект Туран, 37",3 этаж,,,Нура район,Астана,,Астана,Казахстан,Пн: 10:00-23:00; Вт: 10:00-23:00; Ср: 10:00-23:00; Чт: 10:00-23:00; Пт: 10:00-23:00; Сб: 10:00-23:00; Вс: 10:00-23:00,+05:00,4.2,215,87768357474,,,,,,http://safran.kamiqr.com/menu/at-place?utm_media=qr,,,https://instagram.com/safran_astana,,,,https://wa.me/77768357474,,,,,,,51.133044,71.403495,https://2gis.com/firm/70000001076292666,branch
Extaz,караоке-бар,Рестораны; Караоке-залы; Бары,"улица Наркескен, 1",,,Шубар м-н,Есиль район,Астана,,Астана,Казахстан,Пн: 00:00-24:00; Вт: 00:00-24:00; Ср: 00:00-24:00; Чт: 00:00-24:00; Пт: 00:00-24:00; Сб: 00:00-24:00; Вс: 00:00-24:00,+05:00,4.7,573,87774806868,87080806868,,,,,,,,https://instagram.com/extaz.karaoke,,,,https://wa.me/77774806868,,,,,,,51.149304,71.429339,https://2gis.com/firm/70000001060937075,branch
Ramada by Wyndham,,Рестораны; Гостиницы; Банкетные залы; Конференц-залы / Переговорные комнаты; Караоке-залы,"улица Бейбитшилик, 8",,,,Сарыарка район,Астана,,Астана,Казахстан,Пн: 00:00-24:00; Вт: 00:00-24:00; Ср: 00:00-24:00; Чт: 00:00-24:00; Пт: 00:00-24:00; Сб: 00:00-24:00; Вс: 00:00-24:00,+05:00,4.7,118,87172700999,,,hr@ramadaastana.com,reservation@ramadaastana.com,info@ramadaastana.com,http://ramadaastana.com,,,https://instagram.com/ramadaastana,,https://facebook.com/ramadaastana,,https://wa.me/77717009997,,,,https://t.me/ramadanursultan,,,51.167264,71.4213,https://2gis.com/firm/70000001047499955,branch
Berёzka,,Рестораны; Бары; Караоке-залы; Ночные клубы,"проспект Мангилик Ел, 55а",,,,Есиль район,Астана,,Астана,Казахстан,Пн: 12:00-02:00; Вт: 12:00-02:00; Ср: 12:00-03:00; Чт: 12:00-03:00; Пт: 12:00-04:00; Сб: 14:00-04:00; Вс: 14:00-02:00,+05:00,4.0,508,87710006006,,,,,,,,,https://instagram.com/berezka.ast,,,,https://wa.me/77710006006,,,,,,,51.090761,71.42323,https://2gis.com/firm/70000001064868442,branch
Ми Ген,ресторан корейской кухни,Рестораны; Доставка готовых блюд,"проспект Кабанбай батыр, 2",2 этаж,,Шубар м-н,Есиль район,Астана,,Астана,Казахстан,Пн: 11:00-24:00; Вт: 11:00-24:00; Ср: 11:00-24:00; Чт: 11:00-24:00; Пт: 11:00-24:00; Сб: 11:00-24:00; Вс: 11:00-24:00,+05:00,4.1,135,87017732447,87172242904,,,,,http://migen.kz,,,https://instagram.com/migen_astana,,,,https://wa.me/77017732447,,,,,,,51.149419,71.42609,https://2gis.com/firm/70000001018105135,branch
Edition,лаундж-бар,Рестораны; Бары; Караоке-залы,"улица Беимбет Майлин, 16/6",,,Қараөткел ж/м,Алматы район,Астана,,Астана,Казахстан,Пн: 12:00-02:00; Вт: 12:00-02:00; Ср: 12:00-02:00; Чт: 12:00-02:00; Пт: 12:00-04:00; Сб: 12:00-04:00; Вс: 13:00-02:00,+05:00,4.6,669,87010931616,,,,,,,,,https://instagram.com/myata.edition,,,,https://wa.me/77010931616,,,,,,,51.14542,71.476802,https://2gis.com/firm/70000001051840474,branch
SB Karaoke Bar,,Рестораны; Караоке-залы; Бары,"улица Е-489, 7",1 этаж,,,Нура район,Астана,,Астана,Казахстан,Пн: 17:00-03:00; Вт: 17:00-03:00; Ср: 17:00-03:00; Чт: 17:00-03:00; Пт: 17:00-05:00; Сб: 17:00-05:00; Вс: 17:00-03:00,+05:00,4.9,111,87073234788,,,,,,,,,https://instagram.com/sb_karaoke_bar,,,,https://wa.me/77073234788,,,,,,,51.145041,71.37747,https://2gis.com/firm/70000001067109781,branch
Гаухартас,банкетный зал,Рестораны; Банкетные залы,"улица Ермек Серкебаев, 11",,,,Сарыарка район,Астана,,Астана,Казахстан,Пн: 10:00-24:00; Вт: 10:00-24:00; Ср: 10:00-24:00; Чт: 10:00-24:00; Пт: 10:00-24:00; Сб: 10:00-24:00; Вс: 10:00-24:00,+05:00,4.0,389,87760077725,,,,,,,,,https://instagram.com/restaurant.gaukhartas,,,,https://wa.me/77760077725,,,,,,,51.167915,71.388941,https://2gis.com/firm/70000001029710088,branch
Aq Anyz,ресторан восточной кухни,Рестораны; Доставка готовых блюд,"улица Динмухамед Конаев, 14г",,,,Есиль район,Астана,,Астана,Казахстан,Пн: 09:00-24:00; Вт: 09:00-24:00; Ср: 09:00-24:00; Чт: 09:00-24:00; Пт: 09:00-24:00; Сб: 10:00-24:00; Вс: 10:00-24:00 (служба доставки: пн-вс 11:00-23:00),+05:00,4.5,526,87780996688 (служба доставки),87750698889 (служба бронирования),,,,,http://aq-anyz.kz,,,https://instagram.com/aq_anyz,,,,https://wa.me/77780996688,,,,,,,51.128912,71.43833,https://2gis.com/firm/70000001033158649,branch
Hogo Astana,,Рестораны; Караоке-залы,"проспект Республики, 33а",2 этаж,,,Сарыарка район,Астана,,Астана,Казахстан,Пн: 12:00-02:00; Вт: 12:00-02:00; Ср: 12:00-02:00; Чт: 12:00-02:00; Пт: 12:00-02:00; Сб: 12:00-02:00; Вс: 12:00-02:00,+05:00,4.2,74,87770881580,,,,,,,,,https://instagram.com/hogo_astana,,,,https://wa.me/77770881580,,,,,,,51.169535,71.424925,https://2gis.com/firm/70000001069272710,branch
Перчини,ресторан,Рестораны; Пиццерии; Доставка готовых блюд,"проспект Туран, 20",1 этаж,,,Нура район,Астана,,Астана,Казахстан,Пн: 10:00-24:00; Вт: 10:00-24:00; Ср: 10:00-24:00; Чт: 10:00-24:00; Пт: 10:00-24:00; Сб: 10:00-24:00; Вс: 10:00-24:00,+05:00,4.0,613,87752915581,,,perchini.astana@mail.ru,,,http://perchini.ru,,,https://instagram.com/perchini_ast,,,,https://wa.me/77752915581,,,,,,,51.141325,71.411271,https://2gis.com/firm/70000001028355740,branch
REVIVAL,,Рестораны; Караоке-залы; Бары,"улица Сыганак, 17Б",,,,Нура район,Астана,,Астана,Казахстан,Пн: 18:00-03:00; Вт: 18:00-03:00; Ср: 18:00-03:00; Чт: 18:00-03:00; Пт: 18:00-05:00; Сб: 18:00-05:00; Вс: 16:00-03:00 (караоке залы: ср-вс 18:00-3:00 ),+05:00,4.2,431,87786599409,,,,,,,,,https://instagram.com/revival_astana,,,,https://wa.me/77786599409,,,,,,,51.131599,71.390008,https://2gis.com/firm/70000001061532793,branch
Fest 425,лаундж-бар,Рестораны; Кафе; Бары; Пиццерии,"проспект Туран, 9",1 этаж,,Караоткель-2 м-н,Нура район,Астана,,Астана,Казахстан,Пн: 16:00-04:00; Вт: 16:00-04:00; Ср: 16:00-04:00; Чт: 16:00-04:00; Пт: 16:00-04:00; Сб: 16:00-04:00; Вс: 16:00-04:00,+05:00,4.3,485,87010425000,,,,,,http://70000001019518604.2gis.biz,http://fest425-turan.kamiqr.com/menu/delivery,,https://instagram.com/fest.425,,,,https://wa.me/77010425000,,,,,,,51.15112,71.411793,https://2gis.com/firm/70000001019518605,branch
Augustin,ресторан,Рестораны; Бары; Доставка готовых блюд,"улица Достык, 13",1 этаж,,,Есиль район,Астана,,Астана,Казахстан,Пн: 11:00-02:00; Вт: 11:00-02:00; Ср: 11:00-02:00; Чт: 11:00-02:00; Пт: 11:00-04:00; Сб: 11:00-04:00; Вс: 11:00-02:00,+05:00,4.3,93,87784502121,,,,,,,,,https://instagram.com/restoran_augustin,,https://facebook.com/restoran.augustin,,https://wa.me/77784502121,,,,,,,51.126521,71.437208,https://2gis.com/firm/70000001018063485,branch
XO,лаундж-бар,Рестораны; Бары; Караоке-залы,"Амангельды Иманова улица, 26",,,,Байконыр район,Астана,,Астана,Казахстан,Пн: 16:00-03:00; Вт: 16:00-03:00; Ср: 16:00-03:00; Чт: 16:00-03:00; Пт: 16:00-03:00; Сб: 16:00-03:00; Вс: 16:00-03:00,+05:00,4.4,96,87478363110,,,,,,http://xo-resto-bar.kamiqr.com/menu/basic/list,,,https://instagram.com/restobarxo_,,,,https://wa.me/77478363110,,,,,,,51.164115,71.444551,https://2gis.com/firm/70000001075501066,branch
Karnelli,лаундж-бар,Рестораны; Бары,"проспект Тауелсиздик, 23",,,,Алматы район,Астана,,Астана,Казахстан,Пн: 12:00-24:00; Вт: 12:00-24:00; Ср: 12:00-24:00; Чт: 12:00-24:00; Пт: 12:00-02:00; Сб: 12:00-02:00; Вс: 12:00-02:00,+05:00,4.1,26,87073334045,,,,,,,,,https://instagram.com/karnelli_lounge.bar,,,,https://wa.me/77073334045,,,,,,,51.144405,71.460529,https://2gis.com/firm/70000001083540277,branch
Wyndham Garden Astana,отель,Рестораны; Гостиницы; Караоке-залы; Бары; Банкетные залы; Конференц-залы / Переговорные комнаты,"улица Хусейн бен Талал, 25",,,,Есиль район,Астана,,Астана,Казахстан,Пн: 00:00-24:00; Вт: 00:00-24:00; Ср: 00:00-24:00; Чт: 00:00-24:00; Пт: 00:00-24:00; Сб: 00:00-24:00; Вс: 00:00-24:00,+05:00,4.2,250,87172790000,87172790217 (отдел продаж),87172790221 (отдел по организации банкетов),info@wyndhamgardenastana.com,,,http://wyndhamgardenastana.com,,,https://instagram.com/wyndhamgardenastana,,https://facebook.com/wgastana,,https://wa.me/77710226063,,,,,,,51.082111,71.407466,https://2gis.com/firm/70000001027222031,branch
CLV,гостевой комплекс,Рестораны; Караоке-залы; Бани / Сауны; SPA-процедуры; Банкетные залы,"улица Е 126, 6",,,,Нура район,Астана,,Астана,Казахстан,Пн: 00:00-24:00; Вт: 00:00-24:00; Ср: 00:00-24:00; Чт: 00:00-24:00; Пт: 00:00-24:00; Сб: 00:00-24:00; Вс: 00:00-24:00,+05:00,4.9,404,87009990505,87172280505,,clv9990505@mail.ru,,,,,,https://instagram.com/clv_astana,,,,https://wa.me/77009990505,,,,https://t.me/+77009990505,,,51.146309,71.34692,https://2gis.com/firm/70000001050669665,branch
The View,,Рестораны; Бары; Караоке-залы,"улица Достык, 2",27 этаж,,,Нура район,Астана,,Астана,Казахстан,Пн: 15:00-24:00; Вт: 15:00-24:00; Ср: 15:00-24:00; Чт: 15:00-24:00; Пт: 18:00-02:00; Сб: 18:00-02:00; Вс: 15:00-24:00,+05:00,4.5,59,87010265082,,,,,,,,,https://instagram.com/theviewastana,,,,https://wa.me/77010265082,,,,,,,51.129164,71.407463,https://2gis.com/firm/70000001065274281,branch
Baqsha,ресторан,Рестораны; Бары; Доставка готовых блюд,"улица Санжара Асфендиярова, 2",,,,Нура район,Астана,,Астана,Казахстан,Пн: 12:00-02:00; Вт: 12:00-02:00; Ср: 12:00-02:00; Чт: 12:00-02:00; Пт: 12:00-02:00; Сб: 12:00-02:00; Вс: 12:00-02:00,+05:00,4.4,436,87788888754,,,,,,,,,https://instagram.com/baqsha_lounge,,,,https://wa.me/77788888754,,,,,,,51.130978,71.377038,https://2gis.com/firm/70000001063802747,branch
Creatti ,ресторан ,Рестораны; Доставка готовых блюд; Бары,"проспект Мангилик Ел, 59",6 помещение,,,Есиль район,Астана,,Астана,Казахстан,Пн: 12:00-02:00; Вт: 12:00-02:00; Ср: 12:00-02:00; Чт: 12:00-02:00; Пт: 12:00-02:00; Сб: 12:00-02:00; Вс: 12:00-02:00,+05:00,4.3,22,87000695959,,,,,,,,,https://instagram.com/creatti.resto,,,,https://wa.me/77000695959,,,,,,,51.085546,71.422634,https://2gis.com/firm/70000001082710815,branch
Sharbak,караоке-бар,Рестораны; Караоке-залы; Доставка готовых блюд,"проспект Шакарим Кудайбердыулы, 88",2 этаж,,Юго-Восток (левая сторона) ж/м,Алматы район,Астана,,Астана,Казахстан,Пн: 11:00-01:00; Вт: 11:00-01:00; Ср: 11:00-01:00; Чт: 11:00-01:00; Пт: 11:00-01:00; Сб: 11:00-01:00; Вс: 11:00-01:00,+05:00,4.1,214,87073029706,,,,,,http://sharbak2gis.2gis.biz,,,https://instagram.com/kafe_sharbakk,,,,https://wa.me/77073029706,,,,,,,51.14724,71.522194,https://2gis.com/firm/70000001067738061,branch
MILLIONAIRE,ресторан-караоке,Рестораны; Караоке-залы; Бары,"проспект Мангилик Ел, 54",,,,Есиль район,Астана,,Астана,Казахстан,Пн: 19:00-04:00; Вт: 19:00-04:00; Ср: 19:00-04:00; Чт: 19:00-04:00; Пт: 19:00-04:00; Сб: 19:00-05:00; Вс: 19:00-05:00,+05:00,4.4,380,87715555549,,,,,,,,,https://instagram.com/millionaire.astana,,,,https://wa.me/77715555549,,,,https://t.me/millionaire_ast,,,51.089937,71.425724,https://2gis.com/firm/70000001039312217,branch
Ajva,ресторан,Рестораны; Караоке-залы,"проспект Кабанбай батыр, 49",НП: 19,,,Нура район,Астана,,Астана,Казахстан,Пн: 13:00-01:00; Вт: 13:00-01:00; Ср: 13:00-01:00; Чт: 13:00-01:00; Пт: 13:00-03:00; Сб: 13:00-03:00; Вс: 13:00-01:00,+05:00,4.3,98,87004349037,,,,,,,,,https://instagram.com/ajva_astana,,,,https://wa.me/77004349037,,,,,,,51.101867,71.405536,https://2gis.com/firm/70000001078508849,branch
Blackwood,гриль-бар,Рестораны; Бары,"проспект Улы Дала, 71",,,,Есиль район,Астана,,Астана,Казахстан,Пн: 15:00-03:00; Вт: 15:00-03:00; Ср: 15:00-03:00; Чт: 15:00-03:00; Пт: 15:00-03:00; Сб: 15:00-03:00; Вс: 15:00-03:00,+05:00,4.5,171,87077332222,,,,,,,,,https://instagram.com/blackwood_bar_grill,,,,https://wa.me/77077332222,,,,,,,51.092898,71.449185,https://2gis.com/firm/70000001065964310,branch
Provino Wine Bar&Store,винотека ,Рестораны; Бары,"улица Кенесары, 30",1 этаж,,,Сарыарка район,Астана,,Астана,Казахстан,Пн: 10:00-01:00; Вт: 10:00-01:00; Ср: 10:00-01:00; Чт: 10:00-01:00; Пт: 10:00-02:00; Сб: 10:00-02:00; Вс: 10:00-01:00,+05:00,4.4,205,87784252221,,,provinoastana@gmail.com,,,info2gis.tilda.ws/proxy18-kz?target=https://www.instagram.com/provinoastana&back=https://2gis.kz/astana/firm/70000001018072088?m=71.42057%2C51.164364%2F16&mode=0,,,,,,,https://wa.me/77784252221,,,,,,,51.164364,71.42057,https://2gis.com/firm/70000001018072088,branch
Melissa,,Рестораны; Караоке-залы; Бары; Доставка готовых блюд,"улица Жекебатыр, 47",,,Шубар м-н,Есиль район,Астана,,Астана,Казахстан,Пн: 17:00-06:00; Вт: 17:00-06:00; Ср: 17:00-06:00; Чт: 17:00-06:00; Пт: 17:00-06:00; Сб: 17:00-06:00; Вс: 17:00-06:00,+05:00,4.1,482,87782440131,,,,,,,,,https://instagram.com/karaoke_melissa,,,,https://wa.me/77782440131,,,,,,,51.143788,71.423506,https://2gis.com/firm/70000001060640500,branch
L`avenue,,Рестораны,"улица Шамши Калдаяков, 2",,,,Алматы район,Астана,,Астана,Казахстан,Пн: 10:00-23:00; Вт: 10:00-23:00; Ср: 10:00-23:00; Чт: 10:00-23:00; Пт: 10:00-23:00; Сб: 10:00-23:00; Вс: 10:00-23:00,+05:00,4.6,75,87010702940,,,lavenueboncafe@gmail.com,,,,,,https://instagram.com/l.avenue_astana,,,,https://wa.me/77010702940,,,,,,,51.118766,71.454578,https://2gis.com/firm/70000001075800059,branch
Традициональ,гостинично-ресторанный комплекс,Рестораны; Гостиницы; Доставка готовых блюд; Банкетные залы; Бани / Сауны,"проспект Туран, 33",,,Караоткель-1 м-н,Нура район,Астана,,Астана,Казахстан,Пн: 00:00-24:00; Вт: 00:00-24:00; Ср: 00:00-24:00; Чт: 00:00-24:00; Пт: 00:00-24:00; Сб: 00:00-24:00; Вс: 00:00-24:00 (служба доставки: пн-вс 10:00-23:00),+05:00,4.4,122,87172402020 (гостиница),87172402181 (ресторан),87477402181 (ресторан и служба доставки ),info@traditional.kz,,,http://traditionalhome.kz,http://www.traditional.kz,,https://instagram.com/traditionalkz,,,,https://wa.me/77055680444,https://wa.me/77477402181,,,,,,51.138718,71.408236,https://2gis.com/firm/70000001018123134,branch
Art Astana,гостиничный комплекс,Рестораны; Гостиницы; Доставка готовых блюд; Конференц-залы / Переговорные комнаты,"улица Желтоксан, 42",1-5 этаж,,,Сарыарка район,Астана,,Астана,Казахстан,Пн: 00:00-24:00; Вт: 00:00-24:00; Ср: 00:00-24:00; Чт: 00:00-24:00; Пт: 00:00-24:00; Сб: 00:00-24:00; Вс: 00:00-24:00,+05:00,4.4,122,87775158580 (ресепшн),87779689393 (ресторан),,sales@hotelartastana.kz,info@hotelartastana.kz,,,,,https://instagram.com/art_astana_hotel,,,,https://wa.me/77775158580,,,,,,,51.179192,71.413058,https://2gis.com/firm/70000001018062628,branch
Kebab City,,Рестораны; Караоке-залы; Банкетные залы,"проспект Ракымжан Кошкарбаев, 25",,,,Алматы район,Астана,,Астана,Казахстан,Пн: 12:00-01:00; Вт: 12:00-01:00; Ср: 12:00-01:00; Чт: 12:00-01:00; Пт: 12:00-01:00; Сб: 12:00-01:00; Вс: 12:00-01:00,+05:00,4.6,204,87783030655,,,,,,,,,https://instagram.com/kebab_city_astana,,,,https://wa.me/77783030655,,,,,,,51.127196,71.488398,https://2gis.com/firm/70000001065442208,branch
ВАО ВАО,караоке-зал,Рестораны; Караоке-залы,"проспект Кабанбай батыр, 5",,,,Нура район,Астана,,Астана,Казахстан,Пн: 00:00-24:00; Вт: 00:00-24:00; Ср: 00:00-24:00; Чт: 00:00-24:00; Пт: 00:00-24:00; Сб: 00:00-24:00; Вс: 00:00-24:00,+05:00,4.2,710,87015869999,,,,,,http://bao-bao.kz/,,,https://instagram.com/baobao.nur,,,,https://wa.me/77015869999,,,,,,,51.144849,71.419298,https://2gis.com/firm/70000001050750737,branch
Shoreditch,ресторан,Рестораны; Бары,"проспект Кабанбай батыр, 7",,,,Нура район,Астана,,Астана,Казахстан,Пн: 12:00-24:00; Вт: 12:00-24:00; Ср: 12:00-01:00; Чт: 12:00-24:00; Пт: 12:00-01:00; Сб: 12:00-01:00; Вс: 12:00-24:00,+05:00,4.8,1216,87779994114,,,,,,,,,https://instagram.com/shoreditch.astana,,https://facebook.com/shoreditchastana,,https://wa.me/77779994114,,,,,,,51.141758,71.41797,https://2gis.com/firm/70000001021440876,branch
Салтанат Сарайы,ресторанный комплекс,Рестораны; Банкетные залы; Конференц-залы / Переговорные комнаты; Аренда площадок для культурно-массовых мероприятий; Кейтеринг,"проспект Кабанбай батыр, 3",,,,Нура район,Астана,,Астана,Казахстан,Пн: 09:00-21:00; Вт: 09:00-21:00; Ср: 09:00-21:00; Чт: 09:00-21:00; Пт: 09:00-21:00; Сб: 09:00-21:00; Вс: 09:00-21:00,+05:00,4.2,154,87751040033 (отдел продаж),,,,,,,,,https://instagram.com/saltanat.saraiy.dp,,,,https://wa.me/77751040033,,,,https://t.me/+77751040033,,,51.149872,71.423376,https://2gis.com/firm/70000001038586700,branch
Take Eat Easy,ресторан,Рестораны; Доставка готовых блюд,"проспект Туран, 22/1",,,,Нура район,Астана,,Астана,Казахстан,Пн: 09:00-24:00; Вт: 09:00-24:00; Ср: 09:00-24:00; Чт: 09:00-24:00; Пт: 09:00-24:00; Сб: 09:00-24:00; Вс: 09:00-24:00 (служба доставки: пн-вс 9:00-23:00),+05:00,4.0,416,87003336888,,,,,,http://takeeateasygo.kz,http://takeeateasy.kz,,https://instagram.com/takeeateasy_tse,,,,https://wa.me/77003336888,,,,,,,51.139916,71.412121,https://2gis.com/firm/70000001068413680,branch
The Wine Cafe,винный бар,Рестораны; Бары,"проспект Кабанбай батыр, 9/2",,,,Нура район,Астана,,Астана,Казахстан,Пн: 12:00-24:00; Вт: 12:00-24:00; Ср: 12:00-24:00; Чт: 12:00-24:00; Пт: 12:00-02:00; Сб: 12:00-02:00; Вс: 12:00-24:00,+05:00,4.2,109,87776660515,,,,,,http://www.thewinecafe.kz,,,https://instagram.com/winecafe_astana,,,,https://wa.me/77776660515,,,,,,,51.140336,71.416971,https://2gis.com/firm/70000001036545811,branch
Rabiya,ресторан,Рестораны,"улица Сарайшык, 11/1",,,,Есиль район,Астана,,Астана,Казахстан,Пн: 11:00-24:00; Вт: 11:00-24:00; Ср: 11:00-24:00; Чт: 11:00-24:00; Пт: 11:00-01:00; Сб: 11:00-01:00; Вс: 11:00-24:00,+05:00,4.5,331,87750802828,87172480251,,,,,http://kuula.co/share/collection/7F3YJ?logo=-1&card=1&info=0&fs=1&vr=1&zoom=1&gyro=0&initload=0&thumbs=0&inst=ru,,,https://instagram.com/rabiyagroup,,,,https://wa.me/77750802828,,,,,,,51.135407,71.431265,https://2gis.com/firm/70000001040167481,branch
Угли,,Рестораны; Бары; Караоке-залы,"проспект Туран, 21а",,,,Нура район,Астана,,Астана,Казахстан,Пн: 12:00-03:00; Вт: 12:00-03:00; Ср: 12:00-03:00; Чт: 12:00-03:00; Пт: 12:00-03:00; Сб: 12:00-03:00; Вс: 12:00-03:00,+05:00,4.4,131,87006060800,,,,,,,,,https://instagram.com/ugli.bar,,,,https://wa.me/77006060800,,,,,,,51.142472,71.409886,https://2gis.com/firm/70000001083911738,branch
Ginza,ресторан-караоке,Рестораны; Караоке-залы,"проспект Туран, 15",,,Караоткель-2 м-н,Нура район,Астана,,Астана,Казахстан,Пн: 12:00-03:00; Вт: 12:00-03:00; Ср: 12:00-03:00; Чт: 12:00-03:00; Пт: 12:00-05:00; Сб: 12:00-05:00; Вс: 12:00-03:00,+05:00,4.4,467,87774391212,,,,,,,,,https://instagram.com/ginza.astana,,,,https://wa.me/77774391212,,,,,,,51.147458,71.411465,https://2gis.com/firm/70000001036217339,branch
Томирис,ресторан,Рестораны,"шоссе Коргалжын, 2а",16 этаж,,,Нура район,Астана,,Астана,Казахстан,Пн: 11:00-23:00; Вт: 11:00-23:00; Ср: 11:00-23:00; Чт: 11:00-23:00; Пт: 11:00-23:00; Сб: 11:00-23:00; Вс: 11:00-23:00,+05:00,4.4,14,87172791500,,,,,,http://www.hoteldumanastana.com,,,,,,,,,,,,,,51.149573,71.415383,https://2gis.com/firm/70000001024356905,branch
Скандалистъ,ресто-бар,Рестораны; Бары,"проспект Туран, 3",,,Караоткель-2 м-н,Нура район,Астана,,Астана,Казахстан,Пн: 12:00-02:00; Вт: 12:00-02:00; Ср: 12:00-02:00; Чт: 12:00-02:00; Пт: 12:00-03:00; Сб: 12:00-03:00; Вс: 12:00-02:00,+05:00,4.2,92,87088883399,,,,,,,,,https://instagram.com/skandalist.astana,,,,https://wa.me/77088883399,,,,,,,51.154053,71.41138,https://2gis.com/firm/70000001074750604,branch
La Mia Piazza,,Рестораны; Пиццерии,"проспект Туран, 22/1",1 этаж,,,Нура район,Астана,,Астана,Казахстан,Пн: 12:00-24:00; Вт: 12:00-24:00; Ср: 12:00-24:00; Чт: 12:00-24:00; Пт: 12:00-02:00; Сб: 12:00-02:00; Вс: 12:00-24:00,+05:00,4.8,1473,87010225022,,,,,,,,,https://instagram.com/la_mia_piazza,,,,https://wa.me/77010225022,,,,,,,51.139391,71.410125,https://2gis.com/firm/70000001055933855,branch
Chechil Pub,,Рестораны; Бары; Доставка готовых блюд,"проспект Туран, 24",1 этаж,,,Нура район,Астана,,Астана,Казахстан,Пн: 12:00-02:00; Вт: 12:00-02:00; Ср: 12:00-02:00; Чт: 12:00-02:00; Пт: 12:00-03:00; Сб: 14:00-03:00; Вс: 16:00-02:00,+05:00,4.1,584,87788921112,,,,,,,,,https://instagram.com/chechil_saryarka,,,,https://wa.me/77788921112,,,,,,,51.138859,71.410094,https://2gis.com/firm/70000001075867020,branch
Turandot,ресторан,Рестораны; Доставка готовых блюд,"улица Кайым Мухамедханов, 5",,,,Нура район,Астана,,Астана,Казахстан,Пн: 12:00-03:00; Вт: 12:00-03:00; Ср: 12:00-03:00; Чт: 12:00-03:00; Пт: 12:00-03:00; Сб: 12:00-03:00; Вс: 12:00-03:00,+05:00,4.3,228,87778703277,87778703278,87172249707,,,,http://turandot.kz,,,https://instagram.com/turandot.kz,,,,https://wa.me/77778703278,,,,,,,51.138047,71.405213,https://2gis.com/firm/70000001083765300,branch
Edesma ,,Рестораны,"проспект Туран, 22/1",,,,Нура район,Астана,,Астана,Казахстан,Пн: 12:00-24:00; Вт: 12:00-24:00; Ср: 12:00-24:00; Чт: 12:00-24:00; Пт: 12:00-24:00; Сб: 12:00-24:00; Вс: 12:00-24:00,+05:00,4.0,27,87754413240,,,,,,,,,https://instagram.com/edesma_greek_cuisine,,,,https://wa.me/77754413240,,,,,,,51.140692,71.411697,https://2gis.com/firm/70000001083827032,branch
Багратиони,ресторанный комплекс,Рестораны; Банкетные залы; Бары,"проспект Туран, 25",1 этаж,,Караоткель-1 м-н,Нура район,Астана,,Астана,Казахстан,Пн: 12:00-24:00; Вт: 12:00-24:00; Ср: 12:00-24:00; Чт: 12:00-24:00; Пт: 12:00-24:00; Сб: 12:00-24:00; Вс: 12:00-24:00,+05:00,4.0,191,87172402148,87759022417,,,,,,,,https://instagram.com/bagrationikz,,,,https://wa.me/77759022417,,,,,,,51.14106,71.409227,https://2gis.com/firm/70000001018084187,branch
La Maro,,Рестораны; Бары; Доставка готовых блюд,"проспект Туран, 22/1",,,,Нура район,Астана,,Астана,Казахстан,Пн: 12:00-02:00; Вт: 12:00-02:00; Ср: 12:00-02:00; Чт: 12:00-02:00; Пт: 12:00-02:00; Сб: 12:00-02:00; Вс: 12:00-02:00,+05:00,4.4,264,87010522622,,,,,,http://lamaro.kamiqr.com/menu/basic,,,https://instagram.com/lamaro.astana,,,,https://wa.me/77010522622,,,,,,,51.139873,71.412065,https://2gis.com/firm/70000001052279027,branch
Томирис,ресторан,Рестораны; Бары; Банкетные залы,"шоссе Коргалжын, 9",1 этаж,,,Нура район,Астана,,Астана,Казахстан,Пн: 09:00-24:00; Вт: 09:00-24:00; Ср: 09:00-24:00; Чт: 09:00-24:00; Пт: 09:00-24:00; Сб: 09:00-24:00; Вс: 09:00-24:00 (лаундж-бар: пн-вс 12:00-00:00),+05:00,4.9,132,87172642711,87026146520,87779533052,,,,,,,https://instagram.com/tomiris_restaurant,,,,https://wa.me/77026146520,https://wa.me/77779533052,,,,,,51.147097,71.394569,https://2gis.com/firm/70000001074996677,branch
CrepeCafe,,Рестораны; Доставка готовых блюд; Кафе,"улица Динмухамед Конаев, 12/1",1 этаж,,,Есиль район,Астана,,Астана,Казахстан,Пн: 08:00-24:00; Вт: 08:00-24:00; Ср: 08:00-24:00; Чт: 08:00-24:00; Пт: 08:00-24:00; Сб: 09:00-24:00; Вс: 09:00-24:00 (служба доставки: пн-вс 10:00-22:00),+05:00,4.6,1519,87719494949,,,info@crepecafe.kz,,,http://crepecafe.kz,,,https://instagram.com/crepecafe_kz,,https://facebook.com/crepecafekz,,https://wa.me/77719494949,,,,,,,51.129394,71.427792,https://2gis.com/firm/70000001025216760,branch
Мята sky,лаундж-бар,Рестораны; Бары,"улица Сыганак, 45",25 этаж,,,Есиль район,Астана,,Астана,Казахстан,Пн: 12:00-04:00; Вт: 12:00-04:00; Ср: 12:00-04:00; Чт: 12:00-04:00; Пт: 12:00-04:00; Сб: 16:00-04:00; Вс: 16:00-04:00,+05:00,4.3,903,87012021313,,,,,,,,,https://instagram.com/myata.sky,,,,https://wa.me/77012021313,,,,https://t.me/+77012021313,,,51.123144,71.432834,https://2gis.com/firm/70000001037596229,branch
Garo,ресторан,Рестораны,"улица Достык, 16",3 этаж,,,Есиль район,Астана,,Астана,Казахстан,Пн: 12:00-24:00; Вт: 12:00-24:00; Ср: 12:00-24:00; Чт: 12:00-24:00; Пт: 12:00-24:00; Сб: 12:00-24:00; Вс: 12:00-24:00,+05:00,4.8,79,87711595656,,,,,,http://garo.com.kz/,,,https://instagram.com/garo.talangallery,,https://facebook.com/garo.talangallery,,https://wa.me/77711595656,,,,,,,51.125259,71.431884,https://2gis.com/firm/70000001052483992,branch
Chaihana NAVAT,ресторан,Рестораны; Доставка готовых блюд,"проспект Кабанбай батыр, 21",3 этаж,,,Нура район,Астана,,Астана,Казахстан,Пн: 10:00-24:00; Вт: 10:00-24:00; Ср: 10:00-24:00; Чт: 10:00-24:00; Пт: 10:00-24:00; Сб: 10:00-24:00; Вс: 10:00-24:00 (служба доставки: пн-вс 10:30-22:00),+05:00,4.7,4506,87778441111,,,chaihana.navat.kz@gmail.com,,,http://navat.kz,,,https://instagram.com/navat_astana,,https://facebook.com/navat.kz,,https://wa.me/77778441111,,,,,,https://youtube.com/channel/UCG1BLltcElVfRcoH5Z8pHEg,51.128249,71.412681,https://2gis.com/firm/70000001040709213,branch
Marani,грузинский ресторан,Рестораны,"улица Сарайшык, 6",,,,Есиль район,Астана,,Астана,Казахстан,Пн: 12:00-24:00; Вт: 12:00-24:00; Ср: 12:00-24:00; Чт: 12:00-24:00; Пт: 12:00-01:00; Сб: 12:00-01:00; Вс: 12:00-01:00,+05:00,4.7,249,87788008688,,,,,,,,,https://instagram.com/maranicafe_astana,,,,https://wa.me/77788008688,,,,,,,51.13535,71.419856,https://2gis.com/firm/70000001075431026,branch
Revolving,ресторан,Рестораны,"улица Сыганак, 45",23 этаж,,,Есиль район,Астана,,Астана,Казахстан,Пн: 16:00-24:00; Вт: 16:00-24:00; Ср: 16:00-24:00; Чт: 16:00-24:00; Пт: 16:00-24:00; Сб: 13:00-24:00; Вс: 13:00-24:00,+05:00,4.6,615,87014401576,,,,,,http://soluxeastana.kz/,,,https://instagram.com/revolving.restaurant_astana,,,,https://wa.me/77014401576,,,,,,,51.123144,71.432834,https://2gis.com/firm/70000001018072428,branch
Дареджани,ресторан,Рестораны; Доставка готовых блюд,"проспект Кабанбай батыр, 34",,,,Есиль район,Астана,,Астана,Казахстан,Пн: 11:00-24:00; Вт: 11:00-24:00; Ср: 11:00-24:00; Чт: 11:00-24:00; Пт: 11:00-01:00; Сб: 11:00-01:00; Вс: 11:00-24:00 (служба доставки: пн-вс 11:00-22:00),+05:00,4.1,597,87717228290,,,,,,http://abr.kz/restaurant/daredzhani abr.kz,http://taplink.cc/daredzhani,,https://instagram.com/daredzhani,,https://facebook.com/abrest,,https://wa.me/77717228290,,,,,,,51.130411,71.415029,https://2gis.com/firm/70000001018089424,branch
Afsona,ресторан,Рестораны,"улица Сыганак, 60/5",1 этаж,,,Есиль район,Астана,,Астана,Казахстан,Пн: 10:00-22:00; Вт: 10:00-22:00; Ср: 10:00-22:00; Чт: 10:00-22:00; Пт: 10:00-22:00; Сб: 10:00-22:00; Вс: 10:00-22:00,+05:00,4.1,840,87015352524,,,,,,http://mkfamily.kz,,,https://instagram.com/afsona_kz,,https://facebook.com/afsonakz,,https://wa.me/77015352524,,,,,,,51.121242,71.42703,https://2gis.com/firm/70000001040874008,branch
Dali,ресторан,Рестораны; Бары; Караоке-залы; Доставка готовых блюд,"улица Достык, 1/2",,,,Есиль район,Астана,,Астана,Казахстан,Пн: 12:00-24:00; Вт: 12:00-24:00; Ср: 12:00-24:00; Чт: 12:00-24:00; Пт: 12:00-24:00; Сб: 12:00-24:00; Вс: 12:00-24:00,+05:00,4.7,76,87012143322,,,,,,,,,https://instagram.com/dali_astana,,,,https://wa.me/77012143322,,,,,,,51.12946,71.419159,https://2gis.com/firm/70000001056753572,branch
Loyo,,Рестораны; Доставка готовых блюд,"улица Сарайшык, 4",,,,Есиль район,Астана,,Астана,Казахстан,Пн: 09:00-24:00; Вт: 09:00-24:00; Ср: 09:00-24:00; Чт: 09:00-24:00; Пт: 09:00-24:00; Сб: 09:00-24:00; Вс: 09:00-24:00,+05:00,4.1,198,87003338889,,,,,,http://loyo.kz,,,https://instagram.com/loyobistro,,,,https://wa.me/77003338889,,,,,,,51.135457,71.41922,https://2gis.com/firm/70000001060270258,branch
Грузин Кузин,,Рестораны; Доставка готовых блюд,"проспект Кабанбай батыр, 34",,,,Есиль район,Астана,,Астана,Казахстан,Пн: 12:00-24:00; Вт: 12:00-24:00; Ср: 12:00-24:00; Чт: 12:00-24:00; Пт: 12:00-02:00; Сб: 12:00-02:00; Вс: 12:00-24:00,+05:00,4.6,220,87019094405,,,,,,,,,https://instagram.com/gruzin_kz,,,,https://wa.me/77019094405,,,,,,,51.130205,71.414307,https://2gis.com/firm/70000001083031554,branch
Osteria Luce,,Рестораны; Доставка готовых блюд; Бары,"улица Сарайшык, 5г",,,,Есиль район,Астана,,Астана,Казахстан,Пн: 12:00-24:00; Вт: 12:00-24:00; Ср: 12:00-24:00; Чт: 12:00-24:00; Пт: 12:00-24:00; Сб: 12:00-24:00; Вс: 12:00-24:00,+05:00,4.0,60,87005800008,87010000224,,,,,,,,https://instagram.com/luce_restaurant,,,,https://wa.me/77005800008,https://wa.me/77010000224,,,,,,51.136096,71.421008,https://2gis.com/firm/70000001063841278,branch
Salone del Gusto,ресторан,Рестораны,"проспект Кабанбай батыр, 15а",1 этаж,,,Нура район,Астана,,Астана,Казахстан,Пн: 12:00-24:00; Вт: 12:00-24:00; Ср: 12:00-24:00; Чт: 12:00-24:00; Пт: 12:00-24:00; Сб: 12:00-24:00; Вс: 12:00-24:00,+05:00,4.2,42,87715005015,,,,,,,,,https://instagram.com/salonedelgusto_astana,,https://facebook.com/salonedelgusto.ast,,https://wa.me/77715005015,,,,,,,51.136284,71.413646,https://2gis.com/firm/70000001029431367,branch
Buddha-bar,,Рестораны,"улица Сыганак, 60/5",1 этаж,,,Есиль район,Астана,,Астана,Казахстан,Пн: 18:00-01:00; Вт: 18:00-01:00; Ср: 18:00-01:00; Чт: 18:00-01:00; Пт: 18:00-02:00; Сб: 18:00-02:00; Вс: 18:00-01:00,+05:00,4.4,64,87017071230,,,,,,http://buddhabar-astana.com/,,,https://instagram.com/buddhabarastana,,,,https://wa.me/77017071230,,,,,,,51.121877,71.426658,https://2gis.com/firm/70000001074183200,branch
Lou Lou,французский ресторан,Рестораны,"улица Достык, 13",1-2 этаж; НП: 13,,,Есиль район,Астана,,Астана,Казахстан,Пн: 12:00-24:00; Вт: 12:00-24:00; Ср: 12:00-24:00; Чт: 12:00-24:00; Пт: 12:00-02:00; Сб: 12:00-02:00; Вс: 12:00-24:00,+05:00,4.1,287,87778081888,,,,,,http://lou-lou.kz,,,https://instagram.com/loulou_astana,,,,https://wa.me/77778081888,,,,,,,51.126509,71.437284,https://2gis.com/firm/70000001063404829,branch
Divan,ресторан,Рестораны; Доставка готовых блюд; Кондитерские изделия,"улица Динмухамед Конаев, 14",1-2 этаж,,,Есиль район,Астана,,Астана,Казахстан,Пн: 10:00-23:00; Вт: 10:00-23:00; Ср: 10:00-23:00; Чт: 10:00-23:00; Пт: 10:00-23:00; Сб: 10:00-23:00; Вс: 10:00-23:00,+05:00,4.1,169,87172508229,87025115710,,,,,,,,https://instagram.com/divanastana,,,,https://wa.me/77025115710,,,,,,,51.128477,71.433711,https://2gis.com/firm/70000001019499807,branch
Royal Pub,ресто-бар,Рестораны; Кафе; Бары,"улица Динмухамед Конаев, 29/1",2 этаж,,,Есиль район,Астана,,Астана,Казахстан,Пн: 12:00-01:00; Вт: 12:00-01:00; Ср: 12:00-01:00; Чт: 12:00-01:00; Пт: 12:00-02:00; Сб: 12:00-02:00; Вс: 12:00-01:00,+05:00,4.5,66,87022221199,,,,,,,,,https://instagram.com/royalpub_ast,,,,https://wa.me/77022221199,,,,,,,51.131419,71.429292,https://2gis.com/firm/70000001077486468,branch
Mona,ресторан,Рестораны,"улица Кайым Мухамедханов, 1/1",1 этаж,,,Нура район,Астана,,Астана,Казахстан,Пн: 09:00-24:00; Вт: 09:00-24:00; Ср: 09:00-24:00; Чт: 09:00-24:00; Пт: 09:00-01:00; Сб: 09:00-01:00; Вс: 09:00-24:00,+05:00,4.5,73,87760990009,,,,,,,,,https://instagram.com/mona.restaurants,,,,https://wa.me/77760990009,,,,,,,51.137327,71.412648,https://2gis.com/firm/70000001077238649,branch
Line Brew Reserve,,Рестораны; Бары,"улица Кадыргали Жалайыри, 4",2 этаж,,,Алматы район,Астана,,Астана,Казахстан,Пн: 12:00-02:00; Вт: 12:00-02:00; Ср: 12:00-02:00; Чт: 12:00-02:00; Пт: 12:00-02:00; Сб: 12:00-02:00; Вс: 12:00-02:00,+05:00,4.6,935,87010688800,,,,,,http://www.theveil.kz,,,https://instagram.com/linebrewreserve,,,,https://wa.me/77010688800,,,,,,,51.140561,71.445961,https://2gis.com/firm/70000001039971956,branch
Узбечка №1,ресторан восточной и европейской кухни,Рестораны; Доставка готовых блюд,"улица Алихан Бокейхан, 10",1 этаж,,,Есиль район,Астана,,Астана,Казахстан,Пн: 11:00-24:00; Вт: 11:00-24:00; Ср: 11:00-24:00; Чт: 11:00-24:00; Пт: 11:00-24:00; Сб: 11:00-24:00; Вс: 11:00-24:00 (служба доставки: пн-вс 09:30-23:00),+05:00,4.4,1294,87752996688,87011866868 (отдел бронирования столов),,,,,http://www.uzbechka1.kz,,,https://instagram.com/uzbechka__1,,,,https://wa.me/77761091888,https://wa.me/77788991888,,,,,,51.114143,71.439009,https://2gis.com/firm/70000001018123817,branch
Arnau,ресторан,Рестораны,"проспект Туран, 30",2 этаж,,,Нура район,Астана,,Астана,Казахстан,Пн: 12:00-24:00; Вт: 12:00-24:00; Ср: 12:00-24:00; Чт: 12:00-24:00; Пт: 12:00-24:00; Сб: 12:00-24:00; Вс: 12:00-24:00,+05:00,4.6,217,87172279111,87011000704,,,,,http://satgroup.kz,http://arnau-restaurant.kz,,https://instagram.com/arnau_rest,,https://facebook.com/profile.php?id=61556904403552,,https://wa.me/77011000704,,,,,,,51.128573,71.405982,https://2gis.com/firm/70000001018336720,branch
Wine Time,ресторан,Рестораны,"улица Сыганак, 58/1",,,,Есиль район,Астана,,Астана,Казахстан,Пн: 12:00-01:00; Вт: 12:00-01:00; Ср: 12:00-01:00; Чт: 12:00-01:00; Пт: 12:00-02:00; Сб: 12:00-02:00; Вс: 12:00-01:00,+05:00,4.6,92,87055196600,,,,,,,,,https://instagram.com/winetime_ast,,,,https://wa.me/77055196600,,,,,,,51.12184,71.424669,https://2gis.com/firm/70000001060843793,branch
Oblako,лаундж-бар,Рестораны; Бары,"улица Динмухамед Конаев, 33",4 этаж,,,Есиль район,Астана,,Астана,Казахстан,Пн: 12:00-03:00; Вт: 12:00-03:00; Ср: 12:00-03:00; Чт: 12:00-03:00; Пт: 12:00-04:00; Сб: 12:00-04:00; Вс: 12:00-03:00,+05:00,4.4,624,87761113663,,,,,,,,,https://instagram.com/oblako.astana,,,,https://wa.me/77761113663,,,,,,,51.130771,71.433904,https://2gis.com/firm/70000001060878292,branch
Mary Express,,Рестораны,"проспект Туран, 37",3 этаж,,,Нура район,Астана,,Астана,Казахстан,Пн: 10:00-23:00; Вт: 10:00-23:00; Ср: 10:00-23:00; Чт: 10:00-23:00; Пт: 10:00-23:00; Сб: 10:00-23:00; Вс: 10:00-23:00,+05:00,4.8,106,87476983445,,,,,,,,,https://instagram.com/mary_kazakhstan__,,,,https://wa.me/77476983445,,,,,,,51.132159,71.403091,https://2gis.com/firm/70000001082675965,branch
Перчик,,Рестораны,"проспект Туран, 37",3 этаж,,,Нура район,Астана,,Астана,Казахстан,Пн: 10:00-23:00; Вт: 10:00-23:00; Ср: 10:00-23:00; Чт: 10:00-23:00; Пт: 10:00-23:00; Сб: 10:00-23:00; Вс: 10:00-23:00,+05:00,4.5,54,87716889991,,,,,,,,,https://instagram.com/perchik.restaurant,,,,https://wa.me/77716889991,,,,,,,51.132513,71.402753,https://2gis.com/firm/70000001082455260,branch
Asther ,ресторан авторской кухни ,Рестораны,"проспект Туран, 41/1",вход с торца,,,Нура район,Астана,,Астана,Казахстан,Пн: 12:00-24:00; Вт: 12:00-24:00; Ср: 12:00-24:00; Чт: 12:00-24:00; Пт: 12:00-24:00; Сб: 11:00-24:00; Вс: 11:00-24:00,+05:00,4.7,24,87007989988,,,,,,http://asther-restaurant.kamiqr.com/menu/at-place,,,https://instagram.com/asther.restaurant,,,,https://wa.me/77007989988,,,,,,,51.126633,71.401245,https://2gis.com/firm/70000001082377945,branch
Астана Нұры,ресторан,Рестораны; Банкетные залы; Доставка готовых блюд,"проспект Республики, 3/2",,,,Сарыарка район,Астана,,Астана,Казахстан,Пн: 12:00-24:00; Вт: 12:00-24:00; Ср: 12:00-24:00; Чт: 12:00-24:00; Пт: 12:00-24:00; Сб: 12:00-24:00; Вс: 12:00-24:00,+05:00,4.3,459,87172439339,87010429339,,,,,,,,https://instagram.com/astananury,,,,https://wa.me/77010429339,,,,,,,51.157227,71.427093,https://2gis.com/firm/70000001018082724,branch
Line Brew,рестораны,Рестораны; Бары,"улица Кенесары, 20",,,,Сарыарка район,Астана,,Астана,Казахстан,Пн: 12:00-02:00; Вт: 12:00-02:00; Ср: 12:00-02:00; Чт: 12:00-02:00; Пт: 12:00-02:00; Сб: 12:00-02:00; Вс: 12:00-02:00,+05:00,4.2,377,87011551322 (служба бронирования),87172237444,,,,,,,,https://instagram.com/linebrew_restaurants,,,,https://wa.me/77011551322,,,,,,,51.163671,71.41597,https://2gis.com/firm/70000001018069671,branch
Felice,ресторан,Рестораны,"проспект Сарыарка, 1",,,,Сарыарка район,Астана,,Астана,Казахстан,Пн: 12:00-01:00; Вт: 12:00-01:00; Ср: 12:00-01:00; Чт: 12:00-01:00; Пт: 12:00-01:00; Сб: 12:00-01:00; Вс: 12:00-01:00,+05:00,4.4,99,87077007000,,,,,,http://feliceastana.kz,,,https://instagram.com/felice_astana,,https://facebook.com/felice.rest,,https://wa.me/77077007000,,,,https://t.me/+77077007000,,,51.158587,71.409336,https://2gis.com/firm/70000001029447589,branch
Uno,ресторан,Рестораны; Бары; Доставка готовых блюд,"улица Кенесары, 13",,,,Сарыарка район,Астана,,Астана,Казахстан,Пн: 10:00-24:00; Вт: 10:00-24:00; Ср: 10:00-24:00; Чт: 10:00-24:00; Пт: 10:00-24:00; Сб: 10:00-24:00; Вс: 10:00-24:00 (служба доставки: пн-вс 10:00-22:45),+05:00,4.1,571,87028706761,,,,,,http://pizzauno.kz/,,,https://instagram.com/uno.rest,,https://facebook.com/web.facebook.com/unorestnursultan,,https://wa.me/77028706761,,,,,,,51.163563,71.410553,https://2gis.com/firm/70000001037011606,branch
Local Pub,,Рестораны; Бары,"улица Абикен Бектуров, 1а",,,,Нура район,Астана,,Астана,Казахстан,Пн: 15:00-04:00; Вт: 15:00-04:00; Ср: 15:00-04:00; Чт: 15:00-04:00; Пт: 15:00-04:00; Сб: 15:00-04:00; Вс: 15:00-04:00,+05:00,4.5,70,87004008008,87172280730,,,,,http://local-pub.kz,,,https://instagram.com/local_pub,,,,https://wa.me/77004008008,,,,,,,51.129714,71.400542,https://2gis.com/firm/70000001033304037,branch
La Rivière,,Рестораны,"проспект Кабанбай батыр, 1",2 этаж,,,Нура район,Астана,,Астана,Казахстан,"Пн: 07:00-11:00, 12:00-23:00; Вт: 07:00-11:00, 12:00-23:00; Ср: 07:00-11:00, 12:00-23:00; Чт: 07:00-11:00, 12:00-23:00; Пт: 07:00-11:00, 12:00-23:00; Сб: 07:00-11:00, 12:00-23:00; Вс: 07:00-11:00, 12:00-23:00",+05:00,4.4,45,87781144111,,,,,,http://www.larivierekz.com,,,https://instagram.com/lariviereastana,,,,https://wa.me/77781144111,,,,,,,51.152747,71.424436,https://2gis.com/firm/70000001028790489,branch
Ocean Basket,ресторан морепродуктов,Рестораны; Доставка готовых блюд,"улица Сыганак, 17Б",,,,Нура район,Астана,,Астана,Казахстан,Пн: 10:00-23:00; Вт: 10:00-23:00; Ср: 10:00-23:00; Чт: 10:00-23:00; Пт: 10:00-23:00; Сб: 10:00-23:00; Вс: 10:00-23:00,+05:00,4.5,175,87783181040,,,,,,http://www.oceanbasket.kz,,,https://instagram.com/oceanbasket.kz,https://twitter.com/theoceanbasket,https://facebook.com/oceanbasket.kazakhstan,,https://wa.me/77010999911,https://wa.me/77783181040,,,,,,51.130269,71.390216,https://2gis.com/firm/70000001077781110,branch
Урумчи хого,семейный ресторан,Рестораны,"улица Динмухамед Конаев, 29",1 этаж,,,Есиль район,Астана,,Астана,Казахстан,Пн: 11:00-24:00; Вт: 11:00-24:00; Ср: 11:00-24:00; Чт: 11:00-24:00; Пт: 11:00-24:00; Сб: 11:00-24:00; Вс: 11:00-24:00,+05:00,4.0,533,87077777320,,,,,,,,,https://instagram.com/urumchi.hogo.astana,,,,https://wa.me/77077777320,,,,,,,51.131521,71.428367,https://2gis.com/firm/70000001061605659,branch
Hungry Rabbit,развлекательный комплекс,Рестораны; Боулинг,"улица Сакен Сейфуллин, 38",,,,Байконыр район,Астана,,Астана,Казахстан,Пн: 12:00-02:00; Вт: 12:00-02:00; Ср: 12:00-02:00; Чт: 12:00-02:00; Пт: 12:00-03:00; Сб: 12:00-03:00; Вс: 12:00-02:00,+05:00,4.6,2417,87019713777 (служба бронирования),,,,,,http://hungryrabbit.taplink.ws/,,,https://instagram.com/hungryrabbit_and_jimmy,,,,https://wa.me/77019713777,,,,,,,51.171298,71.428808,https://2gis.com/firm/70000001018067856,branch
Mokki,ресторан,Рестораны,"улица Достык, 16",3 этаж,,,Есиль район,Астана,,Астана,Казахстан,Пн: 07:00-24:00; Вт: 07:00-24:00; Ср: 07:00-24:00; Чт: 07:00-24:00; Пт: 07:00-24:00; Сб: 07:00-24:00; Вс: 07:00-24:00,+05:00,4.3,293,87172734000 (многоканальный),87710832579,,,,,http://mokkirestaurant.com,,,https://instagram.com/mokkirestaurant,,,,https://wa.me/77710832579,,,,,,,51.125259,71.431884,https://2gis.com/firm/70000001028064098,branch
Two Hands,,Рестораны,"проспект Туран, 22/1",1 этаж,,,Нура район,Астана,,Астана,Казахстан,Пн: 12:00-24:00; Вт: 12:00-24:00; Ср: 12:00-24:00; Чт: 12:00-24:00; Пт: 12:00-02:00; Сб: 12:00-02:00; Вс: 12:00-24:00,+05:00,4.8,58,87714142224,,,,,,,,,https://instagram.com/twohands_wine_gallery,,,,https://wa.me/77714142224,,,,,,,51.139773,71.410279,https://2gis.com/firm/70000001063805141,branch
CrepeCafe,,Рестораны; Кафе; Доставка готовых блюд,"проспект Туран, 5/5",1 этаж,,Караоткель-2 м-н,Нура район,Астана,,Астана,Казахстан,Пн: 08:00-24:00; Вт: 08:00-24:00; Ср: 08:00-24:00; Чт: 08:00-24:00; Пт: 08:00-24:00; Сб: 09:00-24:00; Вс: 09:00-24:00 (служба доставки: пн-вс 10:00-23:00),+05:00,4.7,274,87719494949,,,info@crepecafe.kz,,,http://crepecafe.kz,,,https://instagram.com/crepecafe_kz,,https://facebook.com/crepecafekz,,https://wa.me/77719494949,,,,,,,51.151935,71.410923,https://2gis.com/firm/70000001080816752,branch
Uchquduq,,Рестораны; Доставка готовых блюд,"улица Достык, 9",3 этаж,,,Есиль район,Астана,,Астана,Казахстан,Пн: 12:00-24:00; Вт: 12:00-24:00; Ср: 12:00-24:00; Чт: 12:00-24:00; Пт: 12:00-24:00; Сб: 12:00-24:00; Вс: 12:00-24:00,+05:00,4.1,275,87712222198,,,,,,,,,https://instagram.com/uchquduq_restaurant,,,,,,,,,,,51.128271,71.424777,https://2gis.com/firm/70000001045189733,branch
Грузин Кузин,,Рестораны; Доставка готовых блюд,"проспект Мангилик Ел, 50",,,,Есиль район,Астана,,Астана,Казахстан,Пн: 12:00-24:00; Вт: 12:00-24:00; Ср: 12:00-24:00; Чт: 12:00-24:00; Пт: 12:00-02:00; Сб: 12:00-02:00; Вс: 12:00-24:00,+05:00,4.5,758,87752127755,,,,,,,,,https://instagram.com/gruzin_kz,,,,https://wa.me/77752127755,,,,,,,51.09413,71.427634,https://2gis.com/firm/70000001055890535,branch
Parmezan,,Рестораны; Доставка готовых блюд,"проспект Мангилик Ел, 37",1 этаж,,,Есиль район,Астана,,Астана,Казахстан,Пн: 10:00-24:00; Вт: 10:00-24:00; Ср: 10:00-24:00; Чт: 10:00-24:00; Пт: 10:00-24:00; Сб: 10:00-24:00; Вс: 10:00-24:00,+05:00,4.2,205,87758383050,,,,,,,,,https://instagram.com/parmezan_cafe,,,,https://wa.me/77758383050,,,,https://t.me/parmezanrestoran,,,51.103496,71.428967,https://2gis.com/firm/70000001046079042,branch
Roastbeef,,Рестораны; Доставка готовых блюд,"проспект Кабанбай батыр, 15/1",1 этаж,,,Нура район,Астана,,Астана,Казахстан,Пн: 08:00-24:00; Вт: 08:00-24:00; Ср: 08:00-24:00; Чт: 08:00-24:00; Пт: 08:00-24:00; Сб: 08:00-24:00; Вс: 08:00-24:00,+05:00,4.3,232,87751029878,,,,,,http://business.google.com/u/1/site/l/15604993784173835524,,,https://instagram.com/roastbeef_astana,,,,https://wa.me/77751029878,,,,,,,51.135486,71.413064,https://2gis.com/firm/70000001028159403,branch
Ocean Basket,ресторан морепродуктов,Рестораны; Доставка готовых блюд,"улица Сарайшык, 7",2 этаж,,,Есиль район,Астана,,Астана,Казахстан,Пн: 10:00-23:00; Вт: 10:00-23:00; Ср: 10:00-23:00; Чт: 10:00-23:00; Пт: 10:00-01:00; Сб: 10:00-01:00; Вс: 10:00-23:00 (служба доставки: пн-вс 10:00-22:30; пт-сб 10:00-23:30),+05:00,4.5,1085,87778889221,87172285557,,,,,http://www.oceanbasket.kz,,,https://instagram.com/oceanbasket.kz,https://twitter.com/theoceanbasket,https://facebook.com/oceanbasket.kazakhstan,,https://wa.me/77010999911,,,,,,,51.13521,71.426245,https://2gis.com/firm/70000001024875195,branch
Өzen,лаундж-бар,Рестораны; Бары,"улица Достык, 16",1 этаж,,,Есиль район,Астана,,Астана,Казахстан,Пн: 09:00-24:00; Вт: 09:00-24:00; Ср: 09:00-24:00; Чт: 09:00-24:00; Пт: 09:00-24:00; Сб: 09:00-24:00; Вс: 09:00-24:00,+05:00,4.7,164,87172734000,87717773685,,,,,http://www.ritzcarlton.com,,,https://instagram.com/ozenlobby,,,,https://wa.me/77717773685,,,,,,,51.124806,71.431229,https://2gis.com/firm/70000001028060868,branch
Emiliya,ресторан,Рестораны,"улица Сыганак, 60/1",1 этаж,,,Есиль район,Астана,,Астана,Казахстан,"Пн: 06:30-11:00, 12:30-23:00; Вт: 06:30-11:00, 12:30-23:00; Ср: 06:30-11:00, 12:30-23:00; Чт: 06:30-11:00, 12:30-23:00; Пт: 06:30-11:00, 12:30-23:00; Сб: 06:30-11:00, 12:30-23:00; Вс: 06:30-11:00, 12:30-23:00",+05:00,4.7,130,87172700555,87773106112,,,,,http://www.marriott.com/TSESI,,,https://instagram.com/emiliya.restaurant,,https://facebook.com/emiliya.restaurant,,https://wa.me/77773106112,,,,,,,51.122862,71.427236,https://2gis.com/firm/70000001042730010,branch
La Maro,,Рестораны; Бары; Доставка готовых блюд,"улица Достык, 1",,,,Есиль район,Астана,,Астана,Казахстан,Пн: 12:00-02:00; Вт: 12:00-02:00; Ср: 12:00-02:00; Чт: 12:00-02:00; Пт: 12:00-02:00; Сб: 10:00-02:00; Вс: 10:00-02:00,+05:00,4.4,233,87015409799,,,,,,http://lamaro.kamiqr.com/menu/basic,,,https://instagram.com/lamaro.astana,,,,https://wa.me/77015409799,,,,,,,51.129608,71.418597,https://2gis.com/firm/70000001075329477,branch
Black Duck,ресторан,Рестораны; Бары; Караоке-залы; Доставка готовых блюд,"проспект Туран, 37/9",1 этаж,,,Нура район,Астана,,Астана,Казахстан,Пн: 12:00-02:00; Вт: 12:00-02:00; Ср: 12:00-02:00; Чт: 12:00-02:00; Пт: 12:00-03:00; Сб: 12:00-03:00; Вс: 12:00-02:00,+05:00,4.4,284,87783220852,,,,,,,,,https://instagram.com/blackduck_astana,,,,https://wa.me/77783220852,,,,,,,51.130756,71.401946,https://2gis.com/firm/70000001059834146,branch
Мясная лавка,ресторан,Рестораны,"проспект Абылай хана, 7",цокольный этаж,,,Алматы район,Астана,,Астана,Казахстан,Пн: 12:00-01:00; Вт: 12:00-01:00; Ср: 12:00-01:00; Чт: 12:00-01:00; Пт: 12:00-02:00; Сб: 12:00-02:00; Вс: 12:00-02:00,+05:00,4.3,206,87759194473,,,,,,,,,https://instagram.com/myasnaya_lavka_astana,,,,https://wa.me/77759194473,,,,https://t.me/+77759194473,,,51.159794,71.47379,https://2gis.com/firm/70000001018129008,branch
BAO Sushi&Noodles Bar,ресторан,Рестораны; Доставка готовых блюд; Суши-бары,"улица Е-489, 4",,,,Нура район,Астана,,Астана,Казахстан,Пн: 12:00-24:00; Вт: 12:00-24:00; Ср: 12:00-24:00; Чт: 12:00-24:00; Пт: 12:00-24:00; Сб: 12:00-24:00; Вс: 12:00-24:00,+05:00,4.4,362,87755947483,,,,,,http://baofood.kz,,,https://instagram.com/bao_astana,,https://facebook.com/bao.noodles,,https://wa.me/77755947483,,,,,,,51.142946,71.378918,https://2gis.com/firm/70000001051611824,branch
Royal Vip,,Рестораны; Караоке-залы; Банкетные залы,"улица Е-247, 20",1 этаж,,,Нура район,Астана,,Астана,Казахстан,Пн: 12:00-01:00; Вт: 12:00-01:00; Ср: 12:00-01:00; Чт: 12:00-01:00; Пт: 12:00-02:00; Сб: 12:00-02:00; Вс: 12:00-01:00,+05:00,4.0,117,87011000029,87711000029,,,,,,,,https://instagram.com/royalvip_astana,,,,https://wa.me/77011000029,,,,,,,51.148076,71.377896,https://2gis.com/firm/70000001018072853,branch
Столичная трапеза Family chef,,Рестораны,"проспект Тауелсиздик, 34/2",НП: 18,,,Алматы район,Астана,,Астана,Казахстан,Пн: 10:00-23:00; Вт: 10:00-23:00; Ср: 10:00-23:00; Чт: 10:00-23:00; Пт: 10:00-23:00; Сб: 10:00-23:00; Вс: 10:00-23:00,+05:00,4.5,75,87052788588,,,,,,http://www.familychef.kz,,,https://instagram.com/familychefastana,,,,https://wa.me/77052788588,,,,,,,51.138336,71.466281,https://2gis.com/firm/70000001081045487,branch
Пинта,рестораны,Рестораны; Бары; Доставка готовых блюд,"проспект Кабанбай батыр, 19/1",,,,Нура район,Астана,,Астана,Казахстан,Пн: 12:00-03:00; Вт: 12:00-03:00; Ср: 12:00-03:00; Чт: 12:00-03:00; Пт: 12:00-04:00; Сб: 12:00-04:00; Вс: 12:00-03:00,+05:00,4.1,747,87073075303,,,,,,http://pinta.kz,,,https://instagram.com/pinta_astana,,https://facebook.com/pintabar.grill,,https://wa.me/77073075303,,,,,,,51.13041,71.413574,https://2gis.com/firm/70000001038899008,branch
Cloud Bar Terrace,,Рестораны; Бары; Караоке-залы,"улица Айша биби, 38",6 этаж,,,Нура район,Астана,,Астана,Казахстан,Пн: 12:00-01:00; Вт: 12:00-01:00; Ср: 12:00-01:00; Чт: 12:00-01:00; Пт: 12:00-01:00; Сб: 12:00-01:00; Вс: 12:00-01:00,+05:00,4.2,262,87053657609 (администратор),,,,,,http://aisha-bibi.com,,,https://instagram.com/cloudbar.terrace,,,,https://wa.me/77053657609,,,,,,,51.141646,71.393248,https://2gis.com/firm/70000001041072366,branch
Slavik,ресто-бар,Рестораны; Бары; Караоке-залы,"улица Алимхан Ермеков, 1/1",,,Шубар м-н,Есиль район,Астана,,Астана,Казахстан,Пн: 15:00-24:00; Вт: 15:00-24:00; Ср: 15:00-24:00; Чт: 15:00-24:00; Пт: 15:00-02:00; Сб: 15:00-02:00; Вс: 15:00-24:00,+05:00,4.7,24,87713777788,,,,,,,,,https://instagram.com/pub_slavik,,,,https://wa.me/77713777788,,,,,,,51.136416,71.430992,https://2gis.com/firm/70000001080402976,branch
KorkemTau,комплекс,Рестораны; Банкетные залы; Караоке-залы,"улица Жаханша Сейдалин, 1/1",,,,Сарыарка район,Астана,,Астана,Казахстан,Пн: 00:00-24:00; Вт: 00:00-24:00; Ср: 00:00-24:00; Чт: 00:00-24:00; Пт: 00:00-24:00; Сб: 00:00-24:00; Вс: 00:00-24:00 (банкетный зал: пн-вс 12:00-1:00),+05:00,4.6,173,87085555025 (гостиница),87058885479 (банкетный зал  ),,,,,,,,https://instagram.com/korkemtau.kompleks,,,,https://wa.me/77085555025,,,,,,,51.174031,71.37067,https://2gis.com/firm/70000001043873085,branch
Шишка Premium,лаундж-бар,Рестораны; Бары; Караоке-залы,"улица Бухар жырау, 28",,,,Есиль район,Астана,,Астана,Казахстан,Пн: 12:00-02:00; Вт: 12:00-02:00; Ср: 12:00-02:00; Чт: 12:00-02:00; Пт: 12:00-04:00; Сб: 13:00-04:00; Вс: 13:00-02:00,+05:00,4.2,221,87779990220,,,,,,,,,https://instagram.com/shishka_botanic,,,,https://wa.me/77779990220,,,,,,,51.101088,71.416746,https://2gis.com/firm/70000001079642771,branch
Mister Joo,ресторан,Рестораны; Караоке-залы,"улица Сыганак, 38",,,,Нура район,Астана,,Астана,Казахстан,Пн: 18:00-05:00; Вт: 18:00-05:00; Ср: 18:00-05:00; Чт: 18:00-05:00; Пт: 18:00-05:00; Сб: 18:00-05:00; Вс: 18:00-05:00,+05:00,4.0,161,87006000086,,,,,,,,,https://instagram.com/mister_joo_restaurant,,,,https://wa.me/77006000086,,,,,,,51.126518,71.398493,https://2gis.com/firm/70000001056368986,branch
Qazaq Gourmet,ресторан высокой казахской кухни,Рестораны,"проспект Мангилик Ел, 29",1 этаж,,,Есиль район,Астана,,Астана,Казахстан,Пн: 12:00-23:00; Вт: 12:00-23:00; Ср: 12:00-23:00; Чт: 12:00-23:00; Пт: 12:00-23:00; Сб: 12:00-23:00; Вс: 12:00-23:00,+05:00,4.3,208,87089888888,,,,,,http://qazaqgourmet.kz/,,,https://instagram.com/qazaq.gourmet,,,,https://wa.me/77089888888,,,,,,,51.108155,71.430094,https://2gis.com/firm/70000001025895405,branch
Sweet&Spicy,,Рестораны; Кейтеринг,"улица Маскеу, 37/2",2 этаж; вход через Lion комплекс,,,Сарыарка район,Астана,,Астана,Казахстан,Пн: 11:00-23:00; Вт: 11:00-23:00; Ср: 11:00-23:00; Чт: 11:00-23:00; Пт: 11:00-23:00; Сб: 11:00-23:00; Вс: 11:00-23:00,+05:00,4.8,52,87474492542,87767990555,,,,,http://sweet-spicy-astana.business.site,,,https://instagram.com/sweet_and_spicy_astana,,,,https://wa.me/77474492542,https://wa.me/77767990555,,,https://t.me/+77474492542,,,51.18236,71.414376,https://2gis.com/firm/70000001067265999,branch
Стумари,грузинский ресторан,Рестораны,"улица Керей-Жанибек хандар, 18",1 этаж,,,Есиль район,Астана,,Астана,Казахстан,Пн: 12:00-24:00; Вт: 12:00-24:00; Ср: 12:00-24:00; Чт: 12:00-24:00; Пт: 12:00-01:00; Сб: 12:00-01:00; Вс: 12:00-24:00,+05:00,4.3,148,87088383215,,,,,,http://stumari.kz,,,https://instagram.com/stumari_astana,,,,https://wa.me/77088383215,,,,,,,51.113854,71.425258,https://2gis.com/firm/70000001079642132,branch
Draft,гриль-бар,Рестораны; Бары,"улица Жумабека Ташенова, 27",1 этаж,,,Байконыр район,Астана,,Астана,Казахстан,Пн: 12:00-02:00; Вт: 12:00-02:00; Ср: 12:00-02:00; Чт: 12:00-02:00; Пт: 12:00-04:00; Сб: 12:00-04:00; Вс: 12:00-02:00,+05:00,4.0,409,87055193030,,,,,,,,,https://instagram.com/draftbar,,,,https://wa.me/77055193030,,,,,,,51.154576,71.451193,https://2gis.com/firm/70000001018079016,branch
Пинта,рестораны,Рестораны; Бары; Доставка готовых блюд,"улица Достык, 18",1 этаж,,,Есиль район,Астана,,Астана,Казахстан,Пн: 12:00-03:00; Вт: 12:00-03:00; Ср: 12:00-03:00; Чт: 12:00-03:00; Пт: 12:00-04:00; Сб: 12:00-04:00; Вс: 12:00-03:00,+05:00,4.4,677,87784459895,,,,,,http://pinta.kz,,,https://instagram.com/pinta_astana,,https://facebook.com/pintabar.grill,,https://wa.me/77784459895,,,,,,,51.124987,71.433902,https://2gis.com/firm/70000001047862223,branch
Хороший День,,Рестораны,"улица Шамши Калдаяков, 6",,,,Алматы район,Астана,,Астана,Казахстан,Пн: 09:00-22:00; Вт: 09:00-22:00; Ср: 09:00-22:00; Чт: 09:00-22:00; Пт: 09:00-23:00; Сб: 09:00-23:00; Вс: 09:00-22:00,+05:00,4.3,581,87003338886,,,,,,http://xoroshden.kz,,,https://instagram.com/xoroshden,,,,https://wa.me/77003338886,,,,,,,51.117883,71.460052,https://2gis.com/firm/70000001056928702,branch
Cantinetta Antinori,итальянский ресторан,Рестораны,"улица Кадыргали Жалайыри, 4",2 этаж,,,Алматы район,Астана,,Астана,Казахстан,Пн: 12:00-24:00; Вт: 12:00-24:00; Ср: 12:00-24:00; Чт: 12:00-24:00; Пт: 12:00-24:00; Сб: 12:00-24:00; Вс: 12:00-24:00,+05:00,4.8,142,87010808508,,,,,,http://theveil.kz,,,https://instagram.com/cantinettaantinori_kz,,,,https://wa.me/77010808508,,,,,,,51.140561,71.445961,https://2gis.com/firm/70000001046911163,branch
Artsy,,Рестораны; Доставка готовых блюд,"улица Алихан Бокейхан, 1а",,,,Есиль район,Астана,,Астана,Казахстан,Пн: 10:00-22:00; Вт: 10:00-22:00; Ср: 10:00-22:00; Чт: 10:00-22:00; Пт: 10:00-24:00; Сб: 10:00-24:00; Вс: 10:00-22:00,+05:00,4.0,161,87769992690,,,,,,,,,https://instagram.com/artsy.restaurant,,,,https://wa.me/77769992690,,,,,,,51.11411,71.442103,https://2gis.com/firm/70000001054564878,branch
SF,,Рестораны; Кафе; Доставка готовых блюд; Пиццерии,"улица Сарайшык, 13Б/1",,,Шубар м-н,Есиль район,Астана,,Астана,Казахстан,Пн: 00:00-24:00; Вт: 00:00-24:00; Ср: 00:00-24:00; Чт: 00:00-24:00; Пт: 00:00-24:00; Сб: 00:00-24:00; Вс: 00:00-24:00,+05:00,4.1,910,87777888888 (служба доставки: круглосуточно ),,,,,,http://shaurma-food.kz,,,https://instagram.com/sf.qaz,,,,https://wa.me/77777888888,,,,,,https://youtube.com/@sf-2077,51.134274,71.436387,https://2gis.com/firm/70000001063303344,branch
De Paris,ресторан,Рестораны; Банкетные залы,"улица Кадыргали Жалайыри, 8",,,,Алматы район,Астана,,Астана,Казахстан,Пн: 11:00-24:00; Вт: 11:00-24:00; Ср: 11:00-24:00; Чт: 11:00-24:00; Пт: 11:00-24:00; Сб: 11:00-24:00; Вс: 11:00-24:00,+05:00,4.2,39,87172222700,87172333700,,,,,,,,https://instagram.com/theone_hotel_astana,,,,,,,,,,,51.13934,71.447105,https://2gis.com/firm/70000001028303762,branch
Lапша Tokyo,,Рестораны; Доставка готовых блюд; Бары,"проспект Ракымжан Кошкарбаев, 8",,,,Алматы район,Астана,,Астана,Казахстан,Пн: 12:00-02:00; Вт: 12:00-02:00; Ср: 12:00-02:00; Чт: 12:00-02:00; Пт: 12:00-02:00; Сб: 12:00-02:00; Вс: 12:00-02:00,+05:00,4.0,80,87782332233,,,,,,http://www.white.kz,,,https://instagram.com/lapsha.astana,,,,https://wa.me/77782332233,,,,,,,51.127469,71.465258,https://2gis.com/firm/70000001051303611,branch
Di Wang,китайский ресторан,Рестораны; Суши-бары,"улица Кадыргали Жалайыри, 4",2 этаж,,,Алматы район,Астана,,Астана,Казахстан,Пн: 12:00-24:00; Вт: 12:00-24:00; Ср: 12:00-24:00; Чт: 12:00-24:00; Пт: 12:00-24:00; Сб: 12:00-24:00; Вс: 12:00-24:00,+05:00,4.8,112,87780508508,,,,,,http://theveil.kz,,,https://instagram.com/diwang_kz,,,,https://wa.me/77780508508,,,,,,,51.140561,71.445961,https://2gis.com/firm/70000001046911253,branch
Saf,,Рестораны; Караоке-залы; Банкетные залы,"улица Касым Аманжолов, 24",1 этаж,,,Алматы район,Астана,,Астана,Казахстан,Пн: 12:00-24:00; Вт: 12:00-24:00; Ср: 12:00-24:00; Чт: 12:00-24:00; Пт: 12:00-24:00; Сб: 12:00-24:00; Вс: 12:00-24:00,+05:00,4.5,692,87778338831,,,,,,,,,https://instagram.com/saf.astana,,,,https://wa.me/77778338831,,,,,,,51.116722,71.473356,https://2gis.com/firm/70000001033364591,branch
SF,,Рестораны; Кафе; Доставка готовых блюд; Суши-бары; Быстрое питание; Пиццерии,"улица Касым Аманжолов, 26",,,,Алматы район,Астана,,Астана,Казахстан,Пн: 00:00-24:00; Вт: 00:00-24:00; Ср: 00:00-24:00; Чт: 00:00-24:00; Пт: 00:00-24:00; Сб: 00:00-24:00; Вс: 00:00-24:00,+05:00,4.5,1298,87777888888 (служба доставки: круглосуточно ),,,,,,http://shaurma-food.kz,,,https://instagram.com/sf.qaz,,,,https://wa.me/77777888888,,,,,,https://youtube.com/@sf-2077,51.119361,71.473849,https://2gis.com/firm/70000001077134992,branch
Korean home food by Ellina Tyan,,Рестораны; Доставка готовых блюд,"улица Достык, 4",1 этаж,,,Нура район,Астана,,Астана,Казахстан,Пн: 12:00-24:00; Вт: 12:00-24:00; Ср: 12:00-24:00; Чт: 12:00-24:00; Пт: 12:00-24:00; Сб: 12:00-24:00; Вс: 12:00-24:00,+05:00,4.3,305,87476493927,,,,,,http://khf.kz,,,https://instagram.com/korean_home_food,,,,https://wa.me/77476493927,,,,,,,51.128274,71.40792,https://2gis.com/firm/70000001057187816,branch
Italio,ресторан,Рестораны; Доставка готовых блюд,"улица Жумекен Нажимеденов, 4/1",,,,Алматы район,Астана,,Астана,Казахстан,Пн: 10:00-24:00; Вт: 10:00-24:00; Ср: 10:00-24:00; Чт: 10:00-24:00; Пт: 10:00-24:00; Сб: 10:00-24:00; Вс: 10:00-24:00,+05:00,4.0,222,87777050888,,,,,,,,,https://instagram.com/italiopizza.rest,,,,https://wa.me/77777050888,,,viber://chat/?number=77012959555,,,,51.120253,71.460144,https://2gis.com/firm/70000001050177243,branch
Samgau,ресторан,Рестораны; Банкетные залы; Доставка готовых блюд,"проспект Абылай хана, 13/1",,,,Алматы район,Астана,,Астана,Казахстан,Пн: 10:00-24:00; Вт: 10:00-24:00; Ср: 10:00-24:00; Чт: 10:00-24:00; Пт: 10:00-24:00; Сб: 10:00-24:00; Вс: 10:00-24:00,+05:00,4.5,53,87007128714,87011549251,,,,,,,,https://instagram.com/samgau.rest,,,,https://wa.me/77011549251,,,,,,,51.15992,71.476352,https://2gis.com/firm/70000001080544508,branch
Uchquduq,,Рестораны; Караоке-залы,"проспект Мангилик Ел, 52а",1 этаж,,,Есиль район,Астана,,Астана,Казахстан,Пн: 12:00-01:00; Вт: 12:00-01:00; Ср: 12:00-01:00; Чт: 12:00-01:00; Пт: 12:00-01:00; Сб: 12:00-01:00; Вс: 12:00-01:00,+05:00,4.3,541,87768888860,,,,,,,,,https://instagram.com/uchquduq_restaurant,,,,https://wa.me/77768888860,,,,,,,51.09151,71.426114,https://2gis.com/firm/70000001036844277,branch
Кызылкум,ресторан,Рестораны; Банкетные залы,"переулок Кызылкум, 13",,,Юго-Восток (правая сторона) ж/м,Алматы район,Астана,,Астана,Казахстан,Пн: 10:00-24:00; Вт: 10:00-24:00; Ср: 10:00-24:00; Чт: 10:00-24:00; Пт: 10:00-24:00; Сб: 10:00-24:00; Вс: 10:00-24:00,+05:00,4.6,15,87172539910,87011088745,,,,,,,,https://instagram.com/kyzylkum.astana,,,,https://wa.me/77011088745,,,,,,,51.135678,71.486454,https://2gis.com/firm/70000001080297816,branch
Sreda,ресто-бар,Рестораны; Бары,"улица Кенесары, 65",цокольный этаж,,,Байконыр район,Астана,,Астана,Казахстан,Пн: 12:00-02:00; Вт: 12:00-02:00; Ср: 12:00-02:00; Чт: 12:00-02:00; Пт: 12:00-02:00; Сб: 12:00-02:00; Вс: 12:00-02:00,+05:00,4.0,161,87020547501,,,,,,,,,https://instagram.com/sreda_na_kenesary,,,,https://wa.me/77020547501,,,,,,,51.167574,71.441799,https://2gis.com/firm/70000001080080320,branch
Rio,бразильский ресторан,Рестораны,"улица Бейбитшилик, 5",,,,Сарыарка район,Астана,,Астана,Казахстан,Пн: 12:00-24:00; Вт: 12:00-24:00; Ср: 12:00-24:00; Чт: 12:00-24:00; Пт: 12:00-24:00; Сб: 12:00-24:00; Вс: 12:00-24:00,+05:00,4.1,243,87713762100,87716679172,,,,,,,,https://instagram.com/rio_astana,,https://facebook.com/astanario,,https://wa.me/77713762100,https://wa.me/77017985380,,,,,,51.163825,71.420712,https://2gis.com/firm/70000001018072459,branch
Грузин Кузин,,Рестораны,"проспект Кабанбай батыр, 58Б",1-2 этаж,,,Есиль район,Астана,,Астана,Казахстан,Пн: 12:00-24:00; Вт: 12:00-24:00; Ср: 12:00-24:00; Чт: 12:00-24:00; Пт: 12:00-02:00; Сб: 12:00-02:00; Вс: 12:00-24:00,+05:00,4.3,683,87752128855,,,,,,,,,https://instagram.com/gruzin_kz,,,,https://wa.me/77752128855,,,,,,,51.095417,71.406393,https://2gis.com/firm/70000001059715368,branch
RANCH,ресторан,Рестораны; Бары; Доставка готовых блюд,"улица Жумекен Нажимеденов, 4",,,,Алматы район,Астана,,Астана,Казахстан,Пн: 13:00-02:00; Вт: 13:00-02:00; Ср: 13:00-02:00; Чт: 13:00-02:00; Пт: 13:00-03:00; Сб: 13:00-03:00; Вс: 13:00-02:00,+05:00,4.8,97,87020543077,,,,,,,,,https://instagram.com/ranch_steakhouse_highvill,,,,https://wa.me/77020543077,,,,,,,51.120284,71.459007,https://2gis.com/firm/70000001077250557,branch
Море море,,Рестораны; Доставка готовых блюд,"улица Жумекен Нажимеденов, 4",,,,Алматы район,Астана,,Астана,Казахстан,Пн: 12:00-24:00; Вт: 12:00-24:00; Ср: 12:00-24:00; Чт: 12:00-24:00; Пт: 12:00-24:00; Сб: 12:00-24:00; Вс: 12:00-24:00,+05:00,4.2,80,87028081888,,,,,,,,,https://instagram.com/moremore.rest,,,,https://wa.me/77028081888,,,,,,,51.120269,71.459245,https://2gis.com/firm/70000001043734803,branch
SF,,Рестораны; Кафе; Доставка готовых блюд; Суши-бары; Быстрое питание; Пиццерии,"проспект Ракымжан Кошкарбаев, 48",,,,Алматы район,Астана,,Астана,Казахстан,Пн: 10:00-01:00; Вт: 10:00-01:00; Ср: 10:00-01:00; Чт: 10:00-01:00; Пт: 10:00-01:00; Сб: 10:00-01:00; Вс: 10:00-01:00,+05:00,4.4,1363,87777888888 (служба доставки: круглосуточно ),,,,,,http://shaurma-food.kz,,,https://instagram.com/sf.qaz,,,,https://wa.me/77777888888,,,,,,https://youtube.com/@sf-2077,51.128102,71.495586,https://2gis.com/firm/70000001071472735,branch
ResPUBlika,,Рестораны; Бары,"улица Алматы, 11",2 этаж,,,Есиль район,Астана,,Астана,Казахстан,Пн: 17:00-02:00; Вт: 17:00-02:00; Ср: 17:00-02:00; Чт: 17:00-02:00; Пт: 17:00-02:00; Сб: 17:00-02:00; Вс: 17:00-02:00,+05:00,4.7,180,87779990044,,,,,,,,,https://instagram.com/pub_respublika,,,,https://wa.me/77779990044,,,,,,,51.116371,71.428203,https://2gis.com/firm/70000001030459588,branch
Platinum,лаундж-бар,Рестораны; Бары; Караоке-залы,"улица Динмухамед Конаев, 14",,,,Есиль район,Астана,,Астана,Казахстан,Пн: 12:00-02:00; Вт: 12:00-02:00; Ср: 12:00-02:00; Чт: 12:00-02:00; Пт: 12:00-04:00; Сб: 12:00-04:00; Вс: 12:00-02:00,+05:00,4.4,722,87771655655,,,,,,,,,https://instagram.com/myata.nursaya,,,,https://wa.me/77771655655,,,,,,,51.128438,71.433984,https://2gis.com/firm/70000001046931318,branch
Мирвари,ресторан,Рестораны,"улица Ахмета Жубанова, 26",1 этаж,,,Байконыр район,Астана,,Астана,Казахстан,Пн: 12:00-02:00; Вт: 12:00-02:00; Ср: 12:00-02:00; Чт: 12:00-02:00; Пт: 12:00-02:00; Сб: 12:00-02:00; Вс: 12:00-02:00,+05:00,4.5,232,87759502776,87053228879,87751374081,,,,,,,https://instagram.com/mirvari_ast,,,,https://wa.me/77759502776,https://wa.me/77053228879,https://wa.me/77751374081,,https://t.me/+77751374081,https://t.me/+77053228879,,51.170837,71.467288,https://2gis.com/firm/70000001030367336,branch
Rumi,центр плова,Рестораны,"проспект Кабанбай батыр, 62",1 этаж,,,Есиль район,Астана,,Астана,Казахстан,Пн: 10:00-24:00; Вт: 10:00-24:00; Ср: 10:00-24:00; Чт: 10:00-24:00; Пт: 10:00-24:00; Сб: 10:00-24:00; Вс: 10:00-24:00,+05:00,4.3,2744,87711106161,87475404040 (служба доставки),,,,,http://plov.kz,,,https://instagram.com/rumi_astana,,https://facebook.com/rumi.qazaqstan,,https://wa.me/77053384040,,,,https://t.me/+77053384040,,,51.088556,71.409372,https://2gis.com/firm/70000001027297427,branch
Brewery,пивной бар,Рестораны; Бары; Караоке-залы,"проспект Туран, 30",цокольный этаж,,,Нура район,Астана,,Астана,Казахстан,Пн: 12:00-02:00; Вт: 12:00-02:00; Ср: 12:00-02:00; Чт: 12:00-02:00; Пт: 12:00-03:00; Сб: 12:00-03:00; Вс: 12:00-02:00,+05:00,4.1,208,87172567711,87028881159,,,,,http://www.brewery.kz,,,https://instagram.com/brewery.rest,,https://facebook.com/profile.php?id=61556904403552,,https://wa.me/77028881159,,,,,,,51.128679,71.406024,https://2gis.com/firm/70000001018064401,branch
Дача,гриль-бар,Рестораны; Кейтеринг,"улица Илияс Омаров, 23",,,,Нура район,Астана,,Астана,Казахстан,Пн: 12:00-02:00; Вт: 12:00-02:00; Ср: 12:00-02:00; Чт: 12:00-02:00; Пт: 12:00-02:00; Сб: 12:00-02:00; Вс: 12:00-02:00,+05:00,4.3,124,87777996699,,,,,,,,,https://instagram.com/dacha_astana_kz,,,,https://wa.me/77777996699,,,,,,,51.140038,71.369823,https://2gis.com/firm/70000001075778389,branch
Turandot,ресторан,Рестораны; Доставка готовых блюд,"проспект Сарыарка, 40",,,,Сарыарка район,Астана,,Астана,Казахстан,Пн: 12:00-24:00; Вт: 12:00-24:00; Ср: 12:00-24:00; Чт: 12:00-24:00; Пт: 12:00-24:00; Сб: 12:00-24:00; Вс: 12:00-24:00 (служба доставки: пн-вс 12:00-23:00),+05:00,4.2,612,87172444253,87778703377,87777444636 (служба доставки),,,,http://turandot.kz,,,https://instagram.com/turandot.kz,,,,,,,,,,,51.174469,71.407258,https://2gis.com/firm/70000001018123536,branch
Terras,ресторан,Рестораны; Караоке-залы; Бары,"улица Кенесары, 12",6 этаж,,,Сарыарка район,Астана,,Астана,Казахстан,Пн: 12:00-02:00; Вт: 12:00-02:00; Ср: 12:00-02:00; Чт: 12:00-02:00; Пт: 12:00-02:00; Сб: 12:00-02:00; Вс: 12:00-02:00,+05:00,4.1,208,87010555561,87011855566,,,,,,,,https://instagram.com/terras.kz,,,,https://wa.me/77015238848,https://wa.me/77011855566,,,,,,51.163017,71.411785,https://2gis.com/firm/70000001056389269,branch
Sorte,,Рестораны; Организация и проведение праздников; Бары,"проспект Мангилик Ел, 41/5",1-2 этаж,,,Есиль район,Астана,,Астана,Казахстан,Пн: 11:00-23:00; Вт: 11:00-23:00; Ср: 11:00-23:00; Чт: 11:00-23:00; Пт: 11:00-23:00; Сб: 11:00-23:00; Вс: 11:00-23:00,+05:00,4.9,52,87781557722,,,,,,,,,https://instagram.com/sorte.restaurant,,,,https://wa.me/77781557722,,,,,,,51.102414,71.426056,https://2gis.com/firm/70000001061399581,branch
Ocean Basket,ресторан морепродуктов,Рестораны; Доставка готовых блюд,"проспект Кабанбай батыр, 62",2 этаж,,,Есиль район,Астана,,Астана,Казахстан,Пн: 10:00-23:00; Вт: 10:00-23:00; Ср: 10:00-23:00; Чт: 10:00-23:00; Пт: 10:00-23:00; Сб: 10:00-23:00; Вс: 10:00-23:00 (служба доставки: пн-вс 10:00-21:30),+05:00,4.4,1632,87007779697,,,,,,http://www.oceanbasket.kz,,,https://instagram.com/oceanbasket.kz,https://twitter.com/theoceanbasket,https://facebook.com/oceanbasket.kazakhstan,,https://wa.me/77010999911,,,,,,,51.088543,71.408223,https://2gis.com/firm/70000001028263064,branch
ШашлыкоFF,ресторан,Рестораны,"улица Керей-Жанибек хандар, 12Б",2 этаж,,,Есиль район,Астана,,Астана,Казахстан,Пн: 12:00-02:00; Вт: 12:00-02:00; Ср: 12:00-02:00; Чт: 12:00-02:00; Пт: 12:00-04:00; Сб: 12:00-04:00; Вс: 12:00-02:00,+05:00,4.4,57,87023412828 (служба бронирования),87172472821 (служба бронирования),87750851212 (служба доставки),,,,http://evgeniyvolkov.com/pano/shashlikoff1/index.html,,,https://instagram.com/shashlikoff_kz,,https://facebook.com/shashlikoffAstana,https://vk.com/shashlikoff_kz,https://wa.me/77023412828,https://wa.me/77075829393,,,,,,51.115222,71.415091,https://2gis.com/firm/70000001069460226,branch
BAO Sushi&Noodles Bar,ресторан,Рестораны; Доставка готовых блюд; Суши-бары,"проспект Кабанбай батыр, 62",2 этаж,,,Есиль район,Астана,,Астана,Казахстан,Пн: 10:00-24:00; Вт: 10:00-24:00; Ср: 10:00-24:00; Чт: 10:00-24:00; Пт: 10:00-24:00; Сб: 10:00-24:00; Вс: 10:00-24:00,+05:00,4.6,585,87021034787,,,,,,http://baofood.kz,,,https://instagram.com/bao_astana,,https://facebook.com/bao.noodles,,https://wa.me/77021034787,,,,,,,51.089221,71.404433,https://2gis.com/firm/70000001064085454,branch
Bal Qaimaq,,Рестораны,"улица Керей-Жанибек хандар, 22",,,,Есиль район,Астана,,Астана,Казахстан,Пн: 12:30-23:00; Вт: 12:30-23:00; Ср: 12:30-23:00; Чт: 12:30-23:00; Пт: 12:30-23:00; Сб: 12:30-23:00; Вс: 12:30-23:00,+05:00,4.7,35,87075098148,,,,,,,,,https://instagram.com/balqaimaq.astana,,,,https://wa.me/77075098148,,,,,,,51.11346,71.427827,https://2gis.com/firm/70000001084272295,branch
Урумчи Хого,семейный ресторан,Рестораны; Доставка готовых блюд,"улица Алихан Бокейхан, 6",,,,Есиль район,Астана,,Астана,Казахстан,Пн: 11:00-24:00; Вт: 11:00-24:00; Ср: 11:00-24:00; Чт: 11:00-24:00; Пт: 11:00-24:00; Сб: 11:00-24:00; Вс: 11:00-24:00,+05:00,4.4,378,87760777322,,,,,,,,,https://instagram.com/urumchi.hogo.astana2,,,,https://wa.me/77760777322,,,,,,,51.116784,71.43969,https://2gis.com/firm/70000001068596489,branch
Dark Side,бар,Рестораны; Бары,"проспект Мангилик Ел, 52а",,,,Есиль район,Астана,,Астана,Казахстан,Пн: 18:00-02:00; Вт: 18:00-02:00; Ср: 18:00-03:00; Чт: 18:00-02:00; Пт: 18:00-03:00; Сб: 18:00-03:00; Вс: 18:00-02:00,+05:00,4.7,1176,87775520052,,,,,,http://darkside.bar,,,https://instagram.com/darkside.bar,,,,https://wa.me/77775520052,,,,,,,51.091231,71.426168,https://2gis.com/firm/70000001037354430,branch
Franklin,лаундж-бар,Рестораны; Бары,"проспект Мангилик Ел, 17",,,,Есиль район,Астана,,Астана,Казахстан,Пн: 15:00-04:00; Вт: 15:00-04:00; Ср: 15:00-04:00; Чт: 15:00-04:00; Пт: 15:00-04:00; Сб: 15:00-04:00; Вс: 15:00-04:00,+05:00,4.4,124,87000200115,,,,,,,,,https://instagram.com/franklin.lounge_bar,,,,https://wa.me/77000200115,,,,,,,51.115685,71.432893,https://2gis.com/firm/70000001081882391,branch
ResPUBlika,,Рестораны; Бары,"улица Санжара Асфендиярова, 7",,,,Нура район,Астана,,Астана,Казахстан,Пн: 17:00-02:00; Вт: 17:00-02:00; Ср: 17:00-02:00; Чт: 17:00-02:00; Пт: 17:00-02:00; Сб: 17:00-02:00; Вс: 17:00-02:00,+05:00,4.7,42,87759993099,,,,,,,,,https://instagram.com/respublika.pub,,,,https://wa.me/77759993099,,,,,,,51.134332,71.37923,https://2gis.com/firm/70000001079705492,branch
SF,,Рестораны; Кафе; Доставка готовых блюд; Суши-бары; Быстрое питание; Пиццерии,"проспект Туран, 55д/1",,,,Нура район,Астана,,Астана,Казахстан,Пн: 11:00-02:00; Вт: 11:00-02:00; Ср: 11:00-02:00; Чт: 11:00-02:00; Пт: 11:00-02:00; Сб: 11:00-02:00; Вс: 11:00-02:00,+05:00,4.1,74,87777888888 (служба доставки: круглосуточно ),,,,,,http://shaurma-food.kz,,,https://instagram.com/sf.qaz,,,,https://wa.me/77777888888,,,,,,https://youtube.com/@sf-2077,51.113923,71.398478,https://2gis.com/firm/70000001083999091,branch
Shifu,китайский ресторан,Рестораны,"улица Сыганак, 17Б",,,,Нура район,Астана,,Астана,Казахстан,Пн: 12:00-24:00; Вт: 12:00-24:00; Ср: 12:00-24:00; Чт: 12:00-24:00; Пт: 12:00-24:00; Сб: 12:00-24:00; Вс: 12:00-24:00,+05:00,4.4,84,87775937788,,,,,,,,,https://instagram.com/shifu.astana,,,,https://wa.me/77775937788,,,,,,,51.130269,71.390216,https://2gis.com/firm/70000001079692349,branch
Bosna,ресторан,Рестораны; Доставка готовых блюд,"улица Касым Аманжолов, 24",1 этаж,,,Алматы район,Астана,,Астана,Казахстан,Пн: 10:00-24:00; Вт: 10:00-24:00; Ср: 10:00-24:00; Чт: 10:00-24:00; Пт: 10:00-24:00; Сб: 10:00-24:00; Вс: 10:00-24:00,+05:00,4.0,351,87750480303,87172967596 (служба доставки),,,,,,,,https://instagram.com/bosna.steakhouse,,,,https://wa.me/77750480303,,,,,,,51.118029,71.473457,https://2gis.com/firm/70000001050742391,branch
Muller Bar & Grill,пивной ресторан,Рестораны; Бары; Доставка готовых блюд,"улица Малика Габдуллина, 12",1 этаж,,,Байконыр район,Астана,,Астана,Казахстан,Пн: 15:00-03:00; Вт: 15:00-03:00; Ср: 15:00-03:00; Чт: 15:00-03:00; Пт: 15:00-03:00; Сб: 15:00-03:00; Вс: 15:00-03:00,+05:00,4.4,162,87072225382,,,,,,,,,https://instagram.com/mullerastana,,https://facebook.com/mullerastana,,https://wa.me/77072225382,,,,,,,51.161881,71.432659,https://2gis.com/firm/70000001018070737,branch
Salt,караоке-бар,Рестораны; Караоке-залы; Бары,"проспект Кабанбай батыр, 3",,,,Нура район,Астана,,Астана,Казахстан,Ср: 18:00-04:00; Чт: 18:00-04:00; Пт: 18:00-06:00; Сб: 18:00-06:00; Вс: 18:00-04:00,+05:00,4.8,26,87022246996,,,,,,,,,https://instagram.com/salt.astana,,,,https://wa.me/77022246996,,,,,,,51.150282,71.423121,https://2gis.com/firm/70000001081812168,branch
Leprechaun,ирландский паб,Рестораны; Бары; Доставка готовых блюд,"проспект Кабанбай батыр, 58Б корпус 2",,,,Есиль район,Астана,,Астана,Казахстан,Пн: 15:00-02:00; Вт: 15:00-02:00; Ср: 15:00-02:00; Чт: 15:00-02:00; Пт: 15:00-03:00; Сб: 15:00-03:00; Вс: 15:00-02:00,+05:00,4.2,278,87710468822,,,,,,http://leprechaun.pub,,,https://instagram.com/pub.leprechaun,,https://facebook.com/100083215394581,https://vk.com/club189605551,https://wa.me/77710468822,,,,,,,51.094736,71.405758,https://2gis.com/firm/70000001029643904,branch
SQUAD,лаундж-бар,Рестораны; Бары,"проспект Кабанбай батыр, 9/2",ВП: 5,,,Нура район,Астана,,Астана,Казахстан,Пн: 15:00-03:00; Вт: 15:00-03:00; Ср: 15:00-03:00; Чт: 15:00-03:00; Пт: 15:00-03:00; Сб: 15:00-03:00; Вс: 15:00-03:00,+05:00,4.2,51,87051919116,,,,,,,,,https://instagram.com/squad_astana,,,,https://wa.me/77051919116,,,,,,,51.140639,71.416337,https://2gis.com/firm/70000001039529117,branch
Kobe,,Рестораны; Бары; Доставка готовых блюд,"улица Кайым Мухамедханов, 4 блок B",1 этаж; напротив минимаркета Амаль,,,Нура район,Астана,,Астана,Казахстан,Пн: 12:00-01:00; Вт: 12:00-01:00; Ср: 12:00-01:00; Чт: 12:00-01:00; Пт: 12:00-02:00; Сб: 12:00-02:00; Вс: 12:00-01:00,+05:00,4.4,181,87756573531,87000294343,,,,,http://kobe.contact-me.info/,,,https://instagram.com/kitchen.kobe,,https://facebook.com/100070605384677,,https://wa.me/77000294343,https://wa.me/77756573531,,,,,,51.137276,71.40149,https://2gis.com/firm/70000001054534811,branch
Пинта,рестораны,Рестораны; Бары; Доставка готовых блюд,"улица Куйши Дина, 18",,,,Алматы район,Астана,,Астана,Казахстан,Пн: 12:00-02:00; Вт: 12:00-02:00; Ср: 12:00-02:00; Чт: 12:00-02:00; Пт: 12:00-03:00; Сб: 12:00-03:00; Вс: 12:00-02:00,+05:00,4.5,1079,87761368139,,,,,,http://pinta.kz,,,https://instagram.com/pinta_astana,,https://facebook.com/pintabar.grill,,https://wa.me/77761368139,,,,,,,51.146949,71.474815,https://2gis.com/firm/70000001028495458,branch
Cloud9 dine&wine,,Рестораны; Бары,"улица Гейдара Алиева, 14",9 этаж,,,Есиль район,Астана,,Астана,Казахстан,Пн: 18:00-01:00; Вт: 18:00-01:00; Ср: 18:00-01:00; Чт: 18:00-01:00; Пт: 18:00-01:00; Сб: 18:00-01:00; Вс: 18:00-01:00,+05:00,4.5,183,87710720045,87172649900,,,,,http://www3.hilton.com/en/hotels/kazakhstan/hilton-astana-TSEKAHI/dining/index.html,,,https://instagram.com/cloud9_astana,,https://facebook.com/hilton.astana,,https://wa.me/77710720045,,,,,,,51.090704,71.410732,https://2gis.com/firm/70000001030596164,branch
Arbat Grill,лаундж-бар,Рестораны; Бары,"улица Мухтара Ауэзова, 12",,,,Сарыарка район,Астана,,Астана,Казахстан,Пн: 10:00-01:00; Вт: 10:00-01:00; Ср: 10:00-01:00; Чт: 10:00-01:00; Пт: 10:00-01:00; Сб: 10:00-01:00; Вс: 10:00-01:00,+05:00,4.8,78,87053050867,,,,,,,,,https://instagram.com/arbat_grill,,,,https://wa.me/77053050867,,,viber://chat/?number=77053050867,,,,51.166816,71.425707,https://2gis.com/firm/70000001077224849,branch
Балкон,,Рестораны; Банкетные залы,"проспект Тауелсиздик, 33",2 этаж,,,Алматы район,Астана,,Астана,Казахстан,Пн: 07:00-23:00; Вт: 07:00-23:00; Ср: 07:00-23:00; Чт: 07:00-23:00; Пт: 07:00-23:00; Сб: 07:00-23:00; Вс: 07:00-23:00,+05:00,4.1,122,87079007444,,,,,,,,,https://instagram.com/balkon_resto_alanda,,,,https://wa.me/77079007444,,,,,,,51.138866,71.463929,https://2gis.com/firm/70000001044372272,branch
Метр,ресто-бар ,Рестораны; Бары,"проспект Кабанбай батыр, 49",,,,Нура район,Астана,,Астана,Казахстан,Пн: 15:00-02:00; Вт: 15:00-02:00; Ср: 15:00-02:00; Чт: 15:00-02:00; Пт: 15:00-04:00; Сб: 15:00-04:00; Вс: 15:00-02:00,+05:00,4.9,34,87075366669,,,,,,,,,https://instagram.com/metr.restobar,,,,https://wa.me/77075366669,,,,,,,51.102205,71.405867,https://2gis.com/firm/70000001081317841,branch
Mare,рестобар,Рестораны; Бары,"улица Наркескен, 1",,,Шубар м-н,Есиль район,Астана,,Астана,Казахстан,Пн: 13:00-01:00; Вт: 13:00-01:00; Ср: 13:00-01:00; Чт: 13:00-01:00; Пт: 13:00-02:00; Сб: 13:00-02:00; Вс: 13:00-01:00,+05:00,4.8,28,87075247777,,,,,,,,,https://instagram.com/mare.astana,,,,https://wa.me/77075247777,,,,,,,51.14926,71.42929,https://2gis.com/firm/70000001079756280,branch
Tower pub,ресторан,Рестораны; Бары,"улица Беимбет Майлин, 8",,,,Алматы район,Астана,,Астана,Казахстан,Пн: 16:00-02:00; Вт: 16:00-02:00; Ср: 16:00-02:00; Чт: 16:00-02:00; Пт: 16:00-02:00; Сб: 14:00-02:00; Вс: 14:00-02:00,+05:00,4.7,214,87172527976,87075019694,,,,,,,,https://instagram.com/towerpub_astana,,,,https://wa.me/77075019694,,,,,,,51.143198,71.468691,https://2gis.com/firm/70000001018074616,branch
Temple,,Рестораны; Бары,"улица Ахмет Байтурсынулы, 3",,,,Алматы район,Астана,,Астана,Казахстан,Ср: 20:00-02:00; Чт: 20:00-02:00; Пт: 20:00-03:00; Сб: 20:00-03:00 (по предварительной записи: ср-сб),+05:00,4.3,43,87711456669,,,,,,,,,https://instagram.com/temple.kz,,,,https://wa.me/77711456669,,,,https://t.me/templekz,,,51.127481,71.45961,https://2gis.com/firm/70000001057723171,branch
Soho,ресто-бар,Рестораны; Бары,"проспект Кабанбай батыр, 43 блок А",,,,Нура район,Астана,,Астана,Казахстан,Пн: 16:00-04:00; Вт: 16:00-04:00; Ср: 16:00-04:00; Чт: 16:00-04:00; Пт: 16:00-04:00; Сб: 12:00-04:00; Вс: 12:00-04:00,+05:00,4.7,27,87012140717,,,,,,,,,https://instagram.com/soho.ast,,,,https://wa.me/77012140717,,,,,,,51.113627,71.404759,https://2gis.com/firm/70000001082354619,branch
Хмельница,пивной ресторан,Рестораны; Бары,"улица Кенесары, 75",,,,Байконыр район,Астана,,Астана,Казахстан,Пн: 16:00-04:00; Вт: 16:00-04:00; Ср: 16:00-04:00; Чт: 16:00-04:00; Пт: 16:00-04:00; Сб: 16:00-04:00; Вс: 16:00-04:00,+05:00,4.2,88,87778100404,,,,,,,,,https://instagram.com/hmelnica_astana,,,,https://wa.me/77778100404,,,,,,,51.167176,71.450215,https://2gis.com/firm/70000001070543908,branch
Bodene  ,,Рестораны; Бары; Доставка готовых блюд,"улица Туркестан, 18/1",1 этаж,,,Есиль район,Астана,,Астана,Казахстан,Пн: 12:00-02:00; Вт: 12:00-02:00; Ср: 12:00-02:00; Чт: 12:00-02:00; Пт: 12:00-02:00; Сб: 12:00-02:00; Вс: 12:00-02:00,+05:00,4.4,124,87015883695,,,,,,,,,,,,,https://wa.me/77015883695,,,,https://t.me/+77015883695,,,51.104424,71.425398,https://2gis.com/firm/70000001067535851,branch
Dario,ресто-бар,Рестораны; Бары,"улица Достык, 4",,,,Нура район,Астана,,Астана,Казахстан,Пн: 18:00-04:00; Вт: 18:00-04:00; Ср: 18:00-04:00; Чт: 18:00-04:00; Пт: 18:00-06:00; Сб: 18:00-06:00; Вс: 18:00-04:00,+05:00,4.5,127,87019935274,87019935275,87054152905,,,,,,,https://instagram.com/dario_restobar,,,,https://wa.me/77019935274,https://wa.me/77019935275,https://wa.me/77054152905,,,,,51.127689,71.407396,https://2gis.com/firm/70000001066045510,branch
Studio 38,караоке-клуб,Рестораны; Караоке-залы,"улица Айша биби, 38",6 этаж,,,Нура район,Астана,,Астана,Казахстан,Пн: 12:00-02:00; Вт: 12:00-02:00; Ср: 12:00-02:00; Чт: 12:00-02:00; Пт: 12:00-02:00; Сб: 12:00-02:00; Вс: 12:00-02:00,+05:00,4.5,105,87713456500,,,,,,,,,https://instagram.com/studio38.karaoke,,,,https://wa.me/77713456500,,,,,,,51.141659,71.393575,https://2gis.com/firm/70000001061211141,branch
Два Грузина,ресторан грузинской кухни,Рестораны; Доставка готовых блюд,"проспект Республики, 40",,,,Байконыр район,Астана,,Астана,Казахстан,Пн: 12:00-01:00; Вт: 12:00-01:00; Ср: 12:00-01:00; Чт: 12:00-01:00; Пт: 12:00-01:00; Сб: 12:00-01:00; Вс: 12:00-01:00,+05:00,4.4,349,87081119310,,,,,,,,,https://instagram.com/dva_gruzina.kz,,,,https://wa.me/77081119310,,,,,,,51.175211,71.425174,https://2gis.com/firm/70000001066071288,branch
Pizzeria,пастабар,Рестораны; Доставка готовых блюд; Пиццерии,"улица Абикен Бектуров, 3/2",,,,Нура район,Астана,,Астана,Казахстан,Пн: 11:00-22:30; Вт: 11:00-22:30; Ср: 11:00-22:30; Чт: 11:00-22:30; Пт: 11:00-22:30; Сб: 11:00-22:30; Вс: 11:00-22:30,+05:00,4.3,126,87789482085,,,,,,,,,https://instagram.com/pizzeria_ast,,,,https://wa.me/77789482085,,,,,,,51.128478,71.396926,https://2gis.com/firm/70000001057740950,branch
Kral,банкетный зал,Рестораны; Банкетные залы,"шоссе Алаш, 39а",,,,Байконыр район,Астана,,Астана,Казахстан,Пн: 10:00-24:00; Вт: 10:00-24:00; Ср: 10:00-24:00; Чт: 10:00-24:00; Пт: 10:00-24:00; Сб: 10:00-24:00; Вс: 10:00-24:00,+05:00,4.0,30,87011818001,,,,,,,,,https://instagram.com/kral.astana,,,,https://wa.me/77011818001,,,,,,,51.206707,71.493235,https://2gis.com/firm/70000001023439753,branch
Tower Pub&Lord_Loft,ресторан,Рестораны,"проспект Улы Дала, 65",,,,Есиль район,Астана,,Астана,Казахстан,Пн: 16:00-02:00; Вт: 16:00-02:00; Ср: 16:00-02:00; Чт: 16:00-02:00; Пт: 16:00-02:00; Сб: 14:00-02:00; Вс: 14:00-02:00,+05:00,4.7,163,87026921787,,,,,,,,,https://instagram.com/lordloft_restoran,,,,https://wa.me/77026921787,,,,,,,51.093918,71.442327,https://2gis.com/firm/70000001066403686,branch
Пинта,рестораны,Рестораны; Бары; Доставка готовых блюд,"проспект Кабанбай батыр, 62",1 этаж,,,Есиль район,Астана,,Астана,Казахстан,Пн: 10:00-24:00; Вт: 10:00-24:00; Ср: 10:00-24:00; Чт: 10:00-24:00; Пт: 10:00-02:00; Сб: 10:00-02:00; Вс: 10:00-24:00,+05:00,4.4,1514,87781962747,,,,,,http://pinta.kz,,,https://instagram.com/pinta_astana,,https://facebook.com/pintabar.grill,,https://wa.me/77781962747,,,,,,,51.089092,71.409091,https://2gis.com/firm/70000001027813186,branch
Frau Muller,ресто-паб,Рестораны; Бары; Караоке-залы,"улица Темирбек Жургенов, 18",,,,Алматы район,Астана,,Астана,Казахстан,Пн: 12:00-02:00; Вт: 12:00-02:00; Ср: 12:00-02:00; Чт: 12:00-02:00; Пт: 12:00-03:00; Сб: 12:00-03:00; Вс: 12:00-03:00,+05:00,4.2,194,87026724066 (отдел бронирование столиков),87022572662 (служба доставки),,,,,,,,https://instagram.com/fraumullerkz,,,,https://wa.me/77026724066,https://wa.me/77022572662,,,,,,51.113017,71.501163,https://2gis.com/firm/70000001041451567,branch
Agugai,,Рестораны; Банкетные залы; Бары; Караоке-залы,"шоссе Коргалжын, 76",,,,Нура район,Астана,,Астана,Казахстан,Пн: 12:00-24:00; Вт: 12:00-24:00; Ср: 12:00-24:00; Чт: 12:00-24:00; Пт: 12:00-02:00; Сб: 12:00-02:00; Вс: 12:00-02:00,+05:00,4.4,181,87761722020,,,,,,,,,https://instagram.com/agugai.01,,,,https://wa.me/77761722020,,,,,,,51.133318,71.310073,https://2gis.com/firm/70000001062741140,branch
CA Lounge,лаундж-бар,Рестораны; Бары,"улица Сыганак, 60/5",1 этаж,,,Есиль район,Астана,,Астана,Казахстан,Пн: 09:00-22:00; Вт: 09:00-22:00; Ср: 09:00-22:00; Чт: 09:00-22:00; Пт: 09:00-22:00; Сб: 09:00-22:00; Вс: 09:00-22:00,+05:00,4.3,211,87015248811,,,,,,,,,https://instagram.com/ca.lounge,,,,https://wa.me/77015248811,,,,,,,51.121105,71.427867,https://2gis.com/firm/70000001056686233,branch
Rich Table,семейный ресторан,Рестораны; Доставка готовых блюд; Караоке-залы,"улица Габит Мусрепов, 12а",,,9 м-н,Алматы район,Астана,,Астана,Казахстан,Пн: 12:00-02:00; Вт: 12:00-02:00; Ср: 12:00-02:00; Чт: 12:00-02:00; Пт: 12:00-02:00; Сб: 12:00-02:00; Вс: 12:00-02:00,+05:00,4.4,106,87079803030,,,,,,,,,https://instagram.com/richtable.astana,,,,https://wa.me/77079803030,,,,,,,51.153696,71.502391,https://2gis.com/firm/70000001068617163,branch
Бастау,ресторан,Рестораны,"улица Темирбек Жургенов, 18/2",,,,Алматы район,Астана,,Астана,Казахстан,Пн: 11:00-24:00; Вт: 11:00-24:00; Ср: 11:00-24:00; Чт: 11:00-24:00; Пт: 11:00-24:00; Сб: 11:00-24:00; Вс: 11:00-24:00,+05:00,4.7,14,87024833218,,,,,,,,,,,,,https://wa.me/77024833218,,,,,,,51.112227,71.503357,https://2gis.com/firm/70000001077262562,branch
Jangiyul,ресторан,Рестораны; Доставка готовых блюд,"улица Темирбек Жургенов, 18/2",,,,Алматы район,Астана,,Астана,Казахстан,Пн: 12:00-24:00; Вт: 12:00-24:00; Ср: 12:00-24:00; Чт: 12:00-24:00; Пт: 12:00-24:00; Сб: 12:00-24:00; Вс: 12:00-24:00,+05:00,4.0,59,87783010000 (служба доставки),,,,,,,,,https://instagram.com/jangiyul,,,,https://wa.me/77783010000,,,,,,,51.114082,71.501494,https://2gis.com/firm/70000001037309095,branch
Счастье,ресторан,Рестораны,"проспект Нургиса Тлендиева, 3/3",1 этаж,,,Сарыарка район,Астана,,Астана,Казахстан,Пн: 10:00-24:00; Вт: 10:00-24:00; Ср: 10:00-24:00; Чт: 10:00-24:00; Пт: 10:00-24:00; Сб: 10:00-24:00; Вс: 10:00-24:00,+05:00,4.3,59,87086862402,87022442284,,,,,,,,,,,,https://wa.me/77086862402,https://wa.me/77022442284,,,,,,51.180536,71.373891,https://2gis.com/firm/70000001041035195,branch
JANSAYA,зона отдыха,Рестораны; Базы отдыха; Конные клубы / Ипподромы; Бани / Сауны,"улица Чайка, 14",,,,,,Аршалынский район,Акмолинская область,Казахстан,Пн: 00:00-24:00; Вт: 00:00-24:00; Ср: 00:00-24:00; Чт: 00:00-24:00; Пт: 00:00-24:00; Сб: 00:00-24:00; Вс: 00:00-24:00,+05:00,4.2,423,87778313333,87778313344,,,,,http://jansaya.2gis.biz/,,,https://instagram.com/jansaya_resort,,,,https://wa.me/77778313333,https://wa.me/77778313344,,,,,,51.070791,71.74958,https://2gis.com/firm/70000001043809328,branch
Дипломат,,Рестораны; Доставка готовых блюд,"улица Ыкылас Дукенулы, 22",,,,Сарыарка район,Астана,,Астана,Казахстан,Пн: 11:00-02:00; Вт: 11:00-02:00; Ср: 11:00-02:00; Чт: 11:00-02:00; Пт: 11:00-02:00; Сб: 11:00-02:00; Вс: 11:00-02:00,+05:00,4.4,40,87172205356,87055956272,,,,,,,,,,,,https://wa.me/77055956272,,,,,,,51.179602,71.427816,https://2gis.com/firm/70000001019393478,branch
Восточный двор,ресторан восточной кухни,Рестораны; Караоке-залы; Доставка готовых блюд,"улица Республики, 1Б",,,,,Косшы,Косшы городская администрация,Акмолинская область,Казахстан,Пн: 11:00-24:00; Вт: 11:00-24:00; Ср: 11:00-24:00; Чт: 11:00-24:00; Пт: 11:00-24:00; Сб: 11:00-24:00; Вс: 11:00-24:00,+05:00,4.7,691,87761119988,,,,,,http://www.vd-resto.com/,,,https://instagram.com/vostochnii_dvor,,,,https://wa.me/77761119988,,,,,,,50.998156,71.374674,https://2gis.com/firm/70000001023991715,branch
Kruger,ресто-бар,Рестораны; Бары,"улица Акан Серы, 16",,,,Сарыарка район,Астана,,Астана,Казахстан,Пн: 14:00-02:00; Вт: 14:00-02:00; Ср: 14:00-02:00; Чт: 14:00-02:00; Пт: 15:00-03:00; Сб: 15:00-03:00; Вс: 14:00-02:00,+05:00,4.3,100,87786759457,,,,,,,,,https://instagram.com/bar.kruger,,,,https://wa.me/77786759457,,,,,,,51.188758,71.382467,https://2gis.com/firm/70000001063234118,branch
Ribeye,ресто-бар,Рестораны; Бары,"проспект Мангилик Ел, 60",,,,Есиль район,Астана,,Астана,Казахстан,Пн: 16:00-02:00; Вт: 16:00-02:00; Ср: 16:00-02:00; Чт: 16:00-02:00; Пт: 16:00-02:00; Сб: 16:00-02:00; Вс: 16:00-02:00,+05:00,4.3,106,87711619553,,,,,,,,,https://instagram.com/ribeye_rest,,,,https://wa.me/77711619553,,,,,,,51.086902,71.425505,https://2gis.com/firm/70000001063035275,branch
Sahara,ресторан,Рестораны; Бары,"проспект Мангилик Ел, 35/1",,,,Есиль район,Астана,,Астана,Казахстан,Пн: 09:00-23:00; Вт: 09:00-23:00; Ср: 09:00-23:00; Чт: 09:00-23:00; Пт: 09:00-24:00; Сб: 09:00-24:00; Вс: 09:00-23:00,+05:00,4.2,409,87478227777,,,,,,,,,https://instagram.com/sahara.rest,,,,https://wa.me/77478227777,,,,,,,51.105196,71.4274,https://2gis.com/firm/70000001057034208,branch
Lion`s,ресто-паб,Рестораны; Бары; Доставка готовых блюд,"проспект Туран, 19/1",цокольный этаж,,,Нура район,Астана,,Астана,Казахстан,Пн: 12:00-02:00; Вт: 12:00-02:00; Ср: 12:00-02:00; Чт: 12:00-02:00; Пт: 12:00-02:00; Сб: 12:00-02:00; Вс: 12:00-02:00,+05:00,4.7,120,87010621199,,,,,,,,,,,,,https://wa.me/77010621199,,,,,,,51.144268,71.408565,https://2gis.com/firm/70000001061014211,branch
Leprechaun,ирландский паб,Рестораны; Бары; Доставка готовых блюд,"проспект Кабанбай батыр, 119",4 этаж,,,Есиль район,Астана,,Астана,Казахстан,Пн: 00:00-24:00; Вт: 00:00-24:00; Ср: 00:00-24:00; Чт: 00:00-24:00; Пт: 00:00-24:00; Сб: 00:00-24:00; Вс: 00:00-24:00,+05:00,4.5,32,87710468822,,,,,,http://leprechaun.pub,,,https://instagram.com/pub.leprechaun,,https://facebook.com/100083215394581,https://vk.com/club189605551,https://wa.me/77710468822,,,,,,,51.027202,71.460832,https://2gis.com/firm/70000001069347826,branch
